{"pagination":{"offset":1400,"limit":100,"count":100,"total":6710},"data":[{"id":"3592285","gmt":"-4","airport_id":"1879","iata_code":"DOM","city_iata_code":"DOM","icao_code":"TDPD","country_iso2":"DM","geoname_id":"6301865","latitude":"15.543056","longitude":"-61.309166","airport_name":"Melville Hall","country_name":"Dominica","phone_number":null,"timezone":"America\/Dominica"},{"id":"3592288","gmt":"5.45","airport_id":"1882","iata_code":"DOP","city_iata_code":"DOP","icao_code":"VNDP","country_iso2":"NP","geoname_id":"7972352","latitude":"29","longitude":"82.816666","airport_name":"Dolpa","country_name":"Nepal","phone_number":null,"timezone":"Asia\/Kathmandu"},{"id":"3592289","gmt":null,"airport_id":"1883","iata_code":"DOR","city_iata_code":"DOR","icao_code":"DFEE","country_iso2":"BF","geoname_id":"6296407","latitude":"14.033333","longitude":"-0.033333","airport_name":"Dori","country_name":"Burkina Faso","phone_number":null,"timezone":"Africa\/Ouagadougou"},{"id":"3592290","gmt":"-4","airport_id":"1884","iata_code":"DOU","city_iata_code":"DOU","icao_code":"SSDO","country_iso2":"BR","geoname_id":"7730986","latitude":"-22.202778","longitude":"-54.925556","airport_name":"Dourados","country_name":"Brazil","phone_number":null,"timezone":"America\/Campo_Grande"},{"id":"3592291","gmt":"-5","airport_id":"1885","iata_code":"DOV","city_iata_code":"DOV","icao_code":"KDOV","country_iso2":"US","geoname_id":null,"latitude":"39.128613","longitude":"-75.464165","airport_name":"Dover AFB","country_name":"United States","phone_number":null,"timezone":"America\/New_York"},{"id":"3592293","gmt":"8","airport_id":"1887","iata_code":"DOY","city_iata_code":"DOY","icao_code":"ZSDY","country_iso2":"CN","geoname_id":"7910226","latitude":"37.518333","longitude":"118.78778","airport_name":"Dongying","country_name":"China","phone_number":null,"timezone":"Asia\/Shanghai"},{"id":"3592294","gmt":"-6","airport_id":"1888","iata_code":"DPA","city_iata_code":"CHI","icao_code":"KDPA","country_iso2":"US","geoname_id":"4890214","latitude":"41.914444","longitude":"-88.24639","airport_name":"Dupage County","country_name":"United States","phone_number":null,"timezone":"America\/Chicago"},{"id":"3592297","gmt":"8","airport_id":"1891","iata_code":"DPL","city_iata_code":"DPL","icao_code":"RPMG","country_iso2":"PH","geoname_id":"7910165","latitude":"8.599978","longitude":"123.34418","airport_name":"Dipolog","country_name":"Philippines","phone_number":null,"timezone":"Asia\/Manila"},{"id":"3592298","gmt":"10","airport_id":"1892","iata_code":"DPO","city_iata_code":"DPO","icao_code":"YDPO","country_iso2":"AU","geoname_id":"7668708","latitude":"-41.172054","longitude":"146.42754","airport_name":"Devonport","country_name":"Australia","phone_number":null,"timezone":"Australia\/Hobart"},{"id":"3592299","gmt":"8","airport_id":"1893","iata_code":"DPS","city_iata_code":"DPS","icao_code":"WADD","country_iso2":"ID","geoname_id":"6301281","latitude":"-8.74446","longitude":"115.16331","airport_name":"Ngurah Rai International","country_name":"Indonesia","phone_number":null,"timezone":"Asia\/Makassar"},{"id":"3592300","gmt":"8","airport_id":"1894","iata_code":"DQA","city_iata_code":"DQA","icao_code":"ZYDQ","country_iso2":"CN","geoname_id":"7910478","latitude":"46.58736","longitude":"125.22841","airport_name":"Sartu","country_name":"China","phone_number":null,"timezone":"Asia\/Shanghai"},{"id":"3592301","gmt":"-8","airport_id":"1895","iata_code":"DRA","city_iata_code":"DRA","icao_code":"KDRA","country_iso2":"US","geoname_id":"5508158","latitude":"36.666668","longitude":"-115.96667","airport_name":"Desert Rock","country_name":"United States","phone_number":null,"timezone":"America\/Los_Angeles"},{"id":"3592302","gmt":"8","airport_id":"1896","iata_code":"DRB","city_iata_code":"DRB","icao_code":"YDBY","country_iso2":"AU","geoname_id":"7730252","latitude":"-17.373333","longitude":"123.6525","airport_name":"Derby","country_name":"Australia","phone_number":null,"timezone":"Australia\/Perth"},{"id":"3592304","gmt":"10","airport_id":"1898","iata_code":"DRD","city_iata_code":"DRD","icao_code":"YDOR","country_iso2":"AU","geoname_id":"7730988","latitude":"-16.5","longitude":"142.33333","airport_name":"Dorunda Station","country_name":"Australia","phone_number":null,"timezone":"Australia\/Brisbane"},{"id":"3592305","gmt":"-5","airport_id":"1899","iata_code":"DRE","city_iata_code":"DRE","icao_code":"KDRM","country_iso2":"US","geoname_id":"4991195","latitude":"46.016666","longitude":"-83.75","airport_name":"Drummond Island","country_name":"United States","phone_number":null,"timezone":"America\/Detroit"},{"id":"3592307","gmt":"-9","airport_id":"1901","iata_code":"DRG","city_iata_code":"DRG","icao_code":"PADE","country_iso2":"US","geoname_id":"5860513","latitude":"66.0712","longitude":"-162.75989","airport_name":"Deering","country_name":"United States","phone_number":null,"timezone":"America\/Nome"},{"id":"3592309","gmt":"-6","airport_id":"1903","iata_code":"DRI","city_iata_code":"DRI","icao_code":"KDRI","country_iso2":"US","geoname_id":"4316113","latitude":"30.85","longitude":"-93.28333","airport_name":"Beauregard Parish","country_name":"United States","phone_number":null,"timezone":"America\/Chicago"},{"id":"3592311","gmt":"-6","airport_id":"1905","iata_code":"DRK","city_iata_code":"DRK","icao_code":"MRDK","country_iso2":"CR","geoname_id":"8014933","latitude":"8.71962","longitude":"-83.6446","airport_name":"Drake Bay","country_name":"Costa Rica","phone_number":null,"timezone":"America\/Costa_Rica"},{"id":"3592312","gmt":"10","airport_id":"1906","iata_code":"DRN","city_iata_code":"DRN","icao_code":"YDBI","country_iso2":"AU","geoname_id":"7730251","latitude":"-28.586666","longitude":"148.21527","airport_name":"Dirranbandi","country_name":"Australia","phone_number":null,"timezone":"Australia\/Brisbane"},{"id":"3592313","gmt":"-7","airport_id":"1907","iata_code":"DRO","city_iata_code":"DRO","icao_code":"KDRO","country_iso2":"US","geoname_id":"5420253","latitude":"37.15995","longitude":"-107.751076","airport_name":"La Plata","country_name":"United States","phone_number":null,"timezone":"America\/Denver"},{"id":"3592314","gmt":"10","airport_id":"1908","iata_code":"DRR","city_iata_code":"DRR","icao_code":"YDRI","country_iso2":"AU","geoname_id":"7730990","latitude":"-25.616667","longitude":"140.21666","airport_name":"Durrie","country_name":"Australia","phone_number":null,"timezone":"Australia\/Brisbane"},{"id":"3592315","gmt":"1","airport_id":"1909","iata_code":"DRS","city_iata_code":"DRS","icao_code":"EDDC","country_iso2":"DE","geoname_id":"3209038","latitude":"51.124332","longitude":"13.766082","airport_name":"Dresden Airport","country_name":"Germany","phone_number":null,"timezone":"Europe\/Berlin"},{"id":"3592316","gmt":"-6","airport_id":"1910","iata_code":"DRT","city_iata_code":"DRT","icao_code":"KDRT","country_iso2":"US","geoname_id":"5520078","latitude":"29.333332","longitude":"-100.97833","airport_name":"Del Rio International","country_name":"United States","phone_number":null,"timezone":"America\/Chicago"},{"id":"3592319","gmt":"9.30","airport_id":"1913","iata_code":"DRW","city_iata_code":"DRW","icao_code":"YPDN","country_iso2":"AU","geoname_id":"2079721","latitude":"-12.407805","longitude":"130.87752","airport_name":"Darwin","country_name":"Australia","phone_number":null,"timezone":"Australia\/Darwin"},{"id":"3592322","gmt":null,"airport_id":"1916","iata_code":"DSA","city_iata_code":"DSA","icao_code":"EGCN","country_iso2":"GB","geoname_id":"6940270","latitude":"53.481003","longitude":"-1.01155","airport_name":"Robin Hood","country_name":"United Kingdom","phone_number":null,"timezone":"Europe\/London"},{"id":"3592323","gmt":"1","airport_id":"1917","iata_code":"DSC","city_iata_code":"DSC","icao_code":"FKKS","country_iso2":"CM","geoname_id":"7730506","latitude":"5.833333","longitude":"10.091667","airport_name":"Dschang","country_name":"Cameroon","phone_number":null,"timezone":"Africa\/Douala"},{"id":"3592325","gmt":"3","airport_id":"1919","iata_code":"DSE","city_iata_code":"DSE","icao_code":"HADC","country_iso2":"ET","geoname_id":"6297264","latitude":"11.075","longitude":"39.71528","airport_name":"Combolcha","country_name":"Ethiopia","phone_number":null,"timezone":"Africa\/Addis_Ababa"},{"id":"3592328","gmt":"5","airport_id":"1922","iata_code":"DSK","city_iata_code":"DSK","icao_code":"OPDI","country_iso2":"PK","geoname_id":"1453807","latitude":"31.916668","longitude":"70.9","airport_name":"Dera Ismail Khan","country_name":"Pakistan","phone_number":null,"timezone":"Asia\/Karachi"},{"id":"3592329","gmt":"-6","airport_id":"1923","iata_code":"DSM","city_iata_code":"DSM","icao_code":"KDSM","country_iso2":"US","geoname_id":"4853851","latitude":"41.532433","longitude":"-93.64809","airport_name":"Des Moines International","country_name":"United States","phone_number":"515-256-5050","timezone":"America\/Chicago"},{"id":"3592330","gmt":"8","airport_id":"1924","iata_code":"DSN","city_iata_code":"DSN","icao_code":"ZBDS","country_iso2":"CN","geoname_id":"7910180","latitude":"39.85","longitude":"110.03333","airport_name":"Dongsheng","country_name":"China","phone_number":null,"timezone":"Asia\/Shanghai"},{"id":"3592332","gmt":"-5","airport_id":"1926","iata_code":"DSV","city_iata_code":"DSV","icao_code":"KDSV","country_iso2":"US","geoname_id":"5114493","latitude":"42.566666","longitude":"-77.7","airport_name":"Dansville","country_name":"United States","phone_number":null,"timezone":"America\/New_York"},{"id":"3592333","gmt":"-7","airport_id":"1927","iata_code":"DTA","city_iata_code":"DTA","icao_code":"KDTA","country_iso2":"US","geoname_id":"5538086","latitude":"39.38333","longitude":"-112.5","airport_name":"Delta","country_name":"United States","phone_number":null,"timezone":"America\/Denver"},{"id":"3592334","gmt":"8","airport_id":"1928","iata_code":"DTD","city_iata_code":"DTD","icao_code":"WALJ","country_iso2":"ID","geoname_id":"7668666","latitude":"0.621316","longitude":"116.60037","airport_name":"Datadawai","country_name":"Indonesia","phone_number":null,"timezone":"Asia\/Makassar"},{"id":"3592335","gmt":"8","airport_id":"1929","iata_code":"DTE","city_iata_code":"DTE","icao_code":"RPUD","country_iso2":"PH","geoname_id":"1716288","latitude":"14.133333","longitude":"122.98333","airport_name":"Naga","country_name":"Philippines","phone_number":null,"timezone":"Asia\/Manila"},{"id":"3592337","gmt":"-3","airport_id":"1931","iata_code":"DTI","city_iata_code":"DTI","icao_code":"SNDT","country_iso2":"BR","geoname_id":"8260803","latitude":"-18.230804","longitude":"-43.647846","airport_name":"Diamantina","country_name":"Brazil","phone_number":null,"timezone":"America\/Sao_Paulo"},{"id":"3592338","gmt":"-6","airport_id":"1932","iata_code":"DTL","city_iata_code":"DTL","icao_code":"KDTL","country_iso2":"US","geoname_id":"5024238","latitude":"46.82639","longitude":"-95.88611","airport_name":"Municipal","country_name":"United States","phone_number":null,"timezone":"America\/Chicago"},{"id":"3592339","gmt":"1","airport_id":"1933","iata_code":"DTM","city_iata_code":"DTM","icao_code":"EDLW","country_iso2":"DE","geoname_id":"6296520","latitude":"51.514828","longitude":"7.613139","airport_name":"Dortmund","country_name":"Germany","phone_number":null,"timezone":"Europe\/Berlin"},{"id":"3592340","gmt":"-6","airport_id":"1934","iata_code":"DTN","city_iata_code":"SHV","icao_code":"KDTN","country_iso2":"US","geoname_id":"4341518","latitude":"32.539722","longitude":"-93.744446","airport_name":"Shreveport Downtown","country_name":"United States","phone_number":null,"timezone":"America\/Chicago"},{"id":"3592342","gmt":"-5","airport_id":"1936","iata_code":"DTW","city_iata_code":"DTT","icao_code":"KDTW","country_iso2":"US","geoname_id":"4990742","latitude":"42.20781","longitude":"-83.35605","airport_name":"Detroit Metropolitan Wayne County","country_name":"United States","phone_number":"734-247-7678","timezone":"America\/Detroit"},{"id":"3592343","gmt":"-6","airport_id":"1937","iata_code":"DUA","city_iata_code":"DUA","icao_code":"KDUA","country_iso2":"US","geoname_id":"4535476","latitude":"33.983334","longitude":"-96.416664","airport_name":"Eaker","country_name":"United States","phone_number":null,"timezone":"America\/Chicago"},{"id":"3592344","gmt":null,"airport_id":"1938","iata_code":"DUB","city_iata_code":"DUB","icao_code":"EIDW","country_iso2":"IE","geoname_id":"6296697","latitude":"53.42728","longitude":"-6.24357","airport_name":"Dublin International","country_name":"Ireland","phone_number":"01\/814-1111","timezone":"Europe\/Dublin"},{"id":"3592345","gmt":"-6","airport_id":"1939","iata_code":"DUC","city_iata_code":"DUC","icao_code":"KDUC","country_iso2":"US","geoname_id":"4538242","latitude":"34.47222","longitude":"-97.959724","airport_name":"Halliburton Field","country_name":"United States","phone_number":null,"timezone":"America\/Chicago"},{"id":"3592346","gmt":"12","airport_id":"1940","iata_code":"DUD","city_iata_code":"DUD","icao_code":"NZDN","country_iso2":"NZ","geoname_id":"6212232","latitude":"-45.92387","longitude":"170.19905","airport_name":"Dunedin International","country_name":"New Zealand","phone_number":null,"timezone":"Pacific\/Auckland"},{"id":"3592347","gmt":"1","airport_id":"1941","iata_code":"DUE","city_iata_code":"DUE","icao_code":"FNDU","country_iso2":"AO","geoname_id":"7668247","latitude":"-7.4","longitude":"20.816668","airport_name":"Dundo","country_name":"Angola","phone_number":null,"timezone":"Africa\/Luanda"},{"id":"3592349","gmt":"-7","airport_id":"1943","iata_code":"DUG","city_iata_code":"DUG","icao_code":"KDUG","country_iso2":"US","geoname_id":"5293083","latitude":"31.46861","longitude":"-109.603615","airport_name":"Bisbee-Douglas International","country_name":"United States","phone_number":null,"timezone":"America\/Phoenix"},{"id":"3592351","gmt":"-5","airport_id":"1945","iata_code":"DUJ","city_iata_code":"DUJ","icao_code":"KDUJ","country_iso2":"US","geoname_id":"5187437","latitude":"41.178333","longitude":"-78.89889","airport_name":"Du Bois-Jefferson County","country_name":"United States","phone_number":null,"timezone":"America\/New_York"},{"id":"3592353","gmt":"7","airport_id":"1947","iata_code":"DUM","city_iata_code":"DUM","icao_code":"WIBD","country_iso2":"ID","geoname_id":"7668672","latitude":"1.583333","longitude":"101.46667","airport_name":"Pinang Kampai","country_name":"Indonesia","phone_number":null,"timezone":"Asia\/Jakarta"},{"id":"3592354","gmt":"-8","airport_id":"1948","iata_code":"DUQ","city_iata_code":"DUQ","icao_code":"CAM3","country_iso2":"CA","geoname_id":null,"latitude":"48.783333","longitude":"-123.7","airport_name":"Duncan\/Quam","country_name":"Canada","phone_number":null,"timezone":"America\/Vancouver"},{"id":"3592355","gmt":"2","airport_id":"1949","iata_code":"DUR","city_iata_code":"DUR","icao_code":"FALE","country_iso2":"ZA","geoname_id":"1007311","latitude":"-29.614445","longitude":"31.116388","airport_name":"Durban International","country_name":"South Africa","phone_number":null,"timezone":"Africa\/Johannesburg"},{"id":"3592356","gmt":"1","airport_id":"1950","iata_code":"DUS","city_iata_code":"DUS","icao_code":"EDDL","country_iso2":"DE","geoname_id":"3206096","latitude":"51.278328","longitude":"6.76558","airport_name":"D\u00fcsseldorf International Airport","country_name":"Germany","phone_number":"+49 211-4210","timezone":"Europe\/Berlin"},{"id":"3592357","gmt":"-9","airport_id":"1951","iata_code":"DUT","city_iata_code":"DUT","icao_code":"PADU","country_iso2":"US","geoname_id":"5877197","latitude":"53.89446","longitude":"-166.54224","airport_name":"Emergency Field","country_name":"United States","phone_number":null,"timezone":"America\/Nome"},{"id":"3592360","gmt":"-6","airport_id":"1954","iata_code":"DVL","city_iata_code":"DVL","icao_code":"KDVL","country_iso2":"US","geoname_id":"5058871","latitude":"48.113056","longitude":"-98.9075","airport_name":"Devils Lake","country_name":"United States","phone_number":null,"timezone":"America\/Chicago"},{"id":"3592361","gmt":"-6","airport_id":"1955","iata_code":"DVN","city_iata_code":"DVN","icao_code":"KDVN","country_iso2":"US","geoname_id":"4853437","latitude":"41.610558","longitude":"-90.58861","airport_name":"Davenport","country_name":"United States","phone_number":null,"timezone":"America\/Chicago"},{"id":"3592362","gmt":"8","airport_id":"1956","iata_code":"DVO","city_iata_code":"DVO","icao_code":"RPMD","country_iso2":"PH","geoname_id":"6300474","latitude":"7.130696","longitude":"125.6447","airport_name":"Francisco Bangoy International","country_name":"Philippines","phone_number":null,"timezone":"Asia\/Manila"},{"id":"3592363","gmt":"10","airport_id":"1957","iata_code":"DVP","city_iata_code":"DVP","icao_code":"YDPD","country_iso2":"AU","geoname_id":"7730992","latitude":"-24.133333","longitude":"141.11667","airport_name":"Davenport Downs","country_name":"Australia","phone_number":null,"timezone":"Australia\/Brisbane"},{"id":"3592364","gmt":"9.30","airport_id":"1958","iata_code":"DVR","city_iata_code":"DVR","icao_code":"YDMN","country_iso2":"AU","geoname_id":"7730993","latitude":"-13.75","longitude":"130.68333","airport_name":"Daly River","country_name":"Australia","phone_number":null,"timezone":"Australia\/Darwin"},{"id":"3592365","gmt":"-7","airport_id":"1959","iata_code":"DVT","city_iata_code":"PHX","icao_code":"KDVT","country_iso2":"US","geoname_id":"5308712","latitude":"33.683887","longitude":"-112.083336","airport_name":"Phoenix Deer Valley Airport","country_name":"United States","phone_number":null,"timezone":"America\/Phoenix"},{"id":"3592366","gmt":"2","airport_id":"1960","iata_code":"DWA","city_iata_code":"DWA","icao_code":"KDWA","country_iso2":"MW","geoname_id":"7730083","latitude":"-13","longitude":"34.13333","airport_name":"Dwangwa","country_name":"Malawi","phone_number":null,"timezone":"Africa\/Blantyre"},{"id":"3592369","gmt":"3","airport_id":"1963","iata_code":"DWD","city_iata_code":"DWD","icao_code":"OEDW","country_iso2":"SA","geoname_id":"6300013","latitude":"24.445545","longitude":"44.1287","airport_name":"Dawadmi","country_name":"Saudi Arabia","phone_number":null,"timezone":"Asia\/Riyadh"},{"id":"3592370","gmt":"-6","airport_id":"1964","iata_code":"DWH","city_iata_code":"HOU","icao_code":"KDWH","country_iso2":"US","geoname_id":"4685320","latitude":"29.75","longitude":"-95.416664","airport_name":"David Wayne Hooks","country_name":"United States","phone_number":null,"timezone":"America\/Chicago"},{"id":"3592372","gmt":"4","airport_id":"1966","iata_code":"DXB","city_iata_code":"DXB","icao_code":"OMDB","country_iso2":"AE","geoname_id":"6300096","latitude":"25.248665","longitude":"55.352917","airport_name":"Dubai","country_name":"United Arab Emirates","phone_number":" +971 4 224 5555","timezone":"Asia\/Dubai"},{"id":"3592374","gmt":"-5","airport_id":"1968","iata_code":"DXR","city_iata_code":"DXR","icao_code":"KDXR","country_iso2":"US","geoname_id":"4832375","latitude":"41.38333","longitude":"-73.45","airport_name":"Danbury Municipal Airport","country_name":"United States","phone_number":null,"timezone":"America\/New_York"},{"id":"3592375","gmt":"10","airport_id":"1969","iata_code":"DYA","city_iata_code":"DYA","icao_code":"YDYS","country_iso2":"AU","geoname_id":"7730253","latitude":"-23.5","longitude":"148","airport_name":"Dysart","country_name":"Australia","phone_number":null,"timezone":"Australia\/Brisbane"},{"id":"3592376","gmt":"8","airport_id":"1970","iata_code":"DYG","city_iata_code":"DYG","icao_code":"ZGDY","country_iso2":"CN","geoname_id":"7730994","latitude":"29.10712","longitude":"110.44569","airport_name":"Dayong","country_name":"China","phone_number":null,"timezone":"Asia\/Shanghai"},{"id":"3592377","gmt":"-5","airport_id":"1971","iata_code":"DYL","city_iata_code":"DYL","icao_code":"KDYL","country_iso2":"US","geoname_id":"5187250","latitude":"40.316666","longitude":"-75.13333","airport_name":"Doylestown","country_name":"United States","phone_number":null,"timezone":"America\/New_York"},{"id":"3592379","gmt":"12","airport_id":"1973","iata_code":"DYR","city_iata_code":"DYR","icao_code":"UHMA","country_iso2":"RU","geoname_id":"6300936","latitude":"64.73333","longitude":"177.75","airport_name":"Anadyr","country_name":"Russia","phone_number":null,"timezone":"Asia\/Anadyr"},{"id":"3592381","gmt":"5","airport_id":"1975","iata_code":"DYU","city_iata_code":"DYU","icao_code":"UTDD","country_iso2":"TJ","geoname_id":"6301006","latitude":"38.54894","longitude":"68.81728","airport_name":"Dushanbe","country_name":"Tajikistan","phone_number":null,"timezone":"Asia\/Dushanbe"},{"id":"3592383","gmt":"3","airport_id":"1977","iata_code":"DZA","city_iata_code":"DZA","icao_code":"FMCZ","country_iso2":"YT","geoname_id":"6297033","latitude":"-12.804901","longitude":"45.2821","airport_name":"Dzaoudzi","country_name":"Mayotte","phone_number":null,"timezone":"Indian\/Mayotte"},{"id":"3592385","gmt":"6","airport_id":"1979","iata_code":"DZN","city_iata_code":"DZN","icao_code":"UAKD","country_iso2":"KZ","geoname_id":"6457344","latitude":"47.7","longitude":"67.73333","airport_name":"Zhezhazgan","country_name":"Kazakhstan","phone_number":null,"timezone":"Asia\/Almaty"},{"id":"3592386","gmt":"-3","airport_id":"1980","iata_code":"DZO","city_iata_code":"DZO","icao_code":"SUDU","country_iso2":"UY","geoname_id":"6300829","latitude":"-33.416668","longitude":"-56.516666","airport_name":"Santa Bernardina","country_name":"Uruguay","phone_number":null,"timezone":"America\/Montevideo"},{"id":"3592388","gmt":"-9","airport_id":"1982","iata_code":"EAA","city_iata_code":"EAA","icao_code":"PAEA","country_iso2":"US","geoname_id":"5861127","latitude":"64.776665","longitude":"-141.1486","airport_name":"Eagle","country_name":"United States","phone_number":null,"timezone":"America\/Anchorage"},{"id":"3592389","gmt":"3","airport_id":"1983","iata_code":"EAB","city_iata_code":"EAB","icao_code":"OYAB","country_iso2":"YE","geoname_id":"7730758","latitude":"14.583333","longitude":"43.5","airport_name":"Abbse","country_name":"Yemen","phone_number":null,"timezone":"Asia\/Aden"},{"id":"3592390","gmt":"11","airport_id":"1984","iata_code":"EAE","city_iata_code":"EAE","icao_code":"NVSE","country_iso2":"VU","geoname_id":null,"latitude":"-17.166668","longitude":"168.41667","airport_name":"Emae","country_name":"Vanuatu","phone_number":null,"timezone":"Pacific\/Efate"},{"id":"3592392","gmt":"3","airport_id":"1986","iata_code":"EAM","city_iata_code":"EAM","icao_code":"OENG","country_iso2":"SA","geoname_id":"6300023","latitude":"17.613281","longitude":"44.414646","airport_name":"Nejran","country_name":"Saudi Arabia","phone_number":null,"timezone":"Asia\/Riyadh"},{"id":"3592394","gmt":"-6","airport_id":"1988","iata_code":"EAR","city_iata_code":"EAR","icao_code":"KEAR","country_iso2":"US","geoname_id":"5071377","latitude":"40.728333","longitude":"-98.998886","airport_name":"Kearney","country_name":"United States","phone_number":null,"timezone":"America\/Chicago"},{"id":"3592395","gmt":"1","airport_id":"1989","iata_code":"EAS","city_iata_code":"EAS","icao_code":"LESO","country_iso2":"ES","geoname_id":"6299355","latitude":"43.3564","longitude":"-1.793538","airport_name":"Donostia - San Sebastian","country_name":"Spain","phone_number":null,"timezone":"Europe\/Madrid"},{"id":"3592396","gmt":"-8","airport_id":"1990","iata_code":"EAT","city_iata_code":"EAT","icao_code":"KEAT","country_iso2":"US","geoname_id":"5815342","latitude":"47.399723","longitude":"-120.20778","airport_name":"Pangborn Field","country_name":"United States","phone_number":null,"timezone":"America\/Los_Angeles"},{"id":"3592397","gmt":"-6","airport_id":"1991","iata_code":"EAU","city_iata_code":"EAU","icao_code":"KEAU","country_iso2":"US","geoname_id":"5251436","latitude":"44.864445","longitude":"-91.48722","airport_name":"Chippewa Valley Regional Airport","country_name":"United States","phone_number":null,"timezone":"America\/Chicago"},{"id":"3592398","gmt":"1","airport_id":"1992","iata_code":"EBA","city_iata_code":"EBA","icao_code":"LIRJ","country_iso2":"IT","geoname_id":"6299623","latitude":"42.766666","longitude":"10.283333","airport_name":"Marina Di Campo","country_name":"Italy","phone_number":null,"timezone":"Europe\/Rome"},{"id":"3592399","gmt":"3","airport_id":"1993","iata_code":"EBB","city_iata_code":"EBB","icao_code":"HUEN","country_iso2":"UG","geoname_id":"6297374","latitude":"0.045111","longitude":"32.443184","airport_name":"Entebbe","country_name":"Uganda","phone_number":null,"timezone":"Africa\/Kampala"},{"id":"3592400","gmt":"3","airport_id":"1994","iata_code":"EBD","city_iata_code":"EBD","icao_code":"HSOB","country_iso2":"SD","geoname_id":"6301556","latitude":"13.159722","longitude":"30.234167","airport_name":"El Obeid","country_name":"Sudan","phone_number":null,"timezone":"Africa\/Khartoum"},{"id":"3592402","gmt":"1","airport_id":"1996","iata_code":"EBH","city_iata_code":"EBH","icao_code":"DAOY","country_iso2":"DZ","geoname_id":"2498543","latitude":"33.717804","longitude":"1.094105","airport_name":"El Bayadh","country_name":null,"phone_number":null,"timezone":"Africa\/Algiers"},{"id":"3592403","gmt":"1","airport_id":"1997","iata_code":"EBJ","city_iata_code":"EBJ","icao_code":"EKEB","country_iso2":"DK","geoname_id":"2622448","latitude":"55.52143","longitude":"8.549062","airport_name":"Esbjerg","country_name":"Denmark","phone_number":null,"timezone":"Europe\/Copenhagen"},{"id":"3592404","gmt":"3","airport_id":"1998","iata_code":"EBL","city_iata_code":"EBL","icao_code":"ORER","country_iso2":"IQ","geoname_id":"7668411","latitude":"36.2375","longitude":"43.963055","airport_name":"Erbil International (irbil Northwest)","country_name":"Iraq","phone_number":null,"timezone":"Asia\/Baghdad"},{"id":"3592405","gmt":"1","airport_id":"1999","iata_code":"EBM","city_iata_code":"EBM","icao_code":"DTTR","country_iso2":"TN","geoname_id":"6296474","latitude":"31.716667","longitude":"9.266667","airport_name":"El Borma","country_name":"Tunisia","phone_number":null,"timezone":"Africa\/Tunis"},{"id":"3592409","gmt":"-6","airport_id":"2003","iata_code":"EBS","city_iata_code":"EBS","icao_code":"KEBS","country_iso2":"US","geoname_id":"4881106","latitude":"42.466667","longitude":"-93.816666","airport_name":"Municipal","country_name":"United States","phone_number":null,"timezone":"America\/Chicago"},{"id":"3592410","gmt":"1","airport_id":"2004","iata_code":"EBU","city_iata_code":"EBU","icao_code":"LFMH","country_iso2":"FR","geoname_id":"6299414","latitude":"45.54139","longitude":"4.296944","airport_name":"Boutheon","country_name":"France","phone_number":null,"timezone":"Europe\/Paris"},{"id":"3592411","gmt":"1","airport_id":"2005","iata_code":"EBW","city_iata_code":"EBW","icao_code":"FKKW","country_iso2":"CM","geoname_id":"7668243","latitude":"2.916667","longitude":"11.166667","airport_name":"Ebolowa","country_name":"Cameroon","phone_number":null,"timezone":"Africa\/Douala"},{"id":"3592413","gmt":"-5","airport_id":"2007","iata_code":"ECG","city_iata_code":"ECG","icao_code":"KECG","country_iso2":"US","geoname_id":"4465092","latitude":"36.259167","longitude":"-76.17306","airport_name":"Elizabeth City","country_name":"United States","phone_number":null,"timezone":"America\/New_York"},{"id":"3592414","gmt":"10","airport_id":"2008","iata_code":"ECH","city_iata_code":"ECH","icao_code":"YECH","country_iso2":"AU","geoname_id":"7668709","latitude":"-36.15","longitude":"144.75","airport_name":"Echuca","country_name":"Australia","phone_number":null,"timezone":"Australia\/Melbourne"},{"id":"3592415","gmt":"2","airport_id":"2009","iata_code":"ECN","city_iata_code":"ECN","icao_code":"LCEN","country_iso2":"CY","geoname_id":"6299311","latitude":"35.15812","longitude":"33.50307","airport_name":"Ercan","country_name":"Cyprus","phone_number":null,"timezone":"Asia\/Nicosia"},{"id":"3592417","gmt":"-6","airport_id":"2011","iata_code":"ECP","city_iata_code":"PFN","icao_code":"KECP","country_iso2":"US","geoname_id":"7602002","latitude":"30.357803","longitude":"-85.79892","airport_name":"NW Florida Beaches Int","country_name":"United States","phone_number":null,"timezone":"America\/Chicago"},{"id":"3592421","gmt":"3","airport_id":"2015","iata_code":"EDB","city_iata_code":"EDB","icao_code":"HSDB","country_iso2":"SD","geoname_id":"7668299","latitude":"18.283333","longitude":"30.833332","airport_name":"Eldebba","country_name":"Sudan","phone_number":null,"timezone":"Africa\/Khartoum"},{"id":"3592423","gmt":"-5","airport_id":"2017","iata_code":"EDE","city_iata_code":"EDE","icao_code":"KEDE","country_iso2":"US","geoname_id":"4464899","latitude":"36.066666","longitude":"-76.65","airport_name":"Municipal","country_name":"United States","phone_number":null,"timezone":"America\/New_York"},{"id":"3592426","gmt":null,"airport_id":"2020","iata_code":"EDI","city_iata_code":"EDI","icao_code":"EGPH","country_iso2":"GB","geoname_id":"6296627","latitude":"55.948143","longitude":"-3.364177","airport_name":"Edinburgh","country_name":"United Kingdom","phone_number":null,"timezone":"Europe\/London"},{"id":"3592427","gmt":"-6","airport_id":"2021","iata_code":"EDK","city_iata_code":"EDK","icao_code":"KEQA","country_iso2":"US","geoname_id":"4270869","latitude":"37.816666","longitude":"-96.86667","airport_name":"El Dorado","country_name":"United States","phone_number":null,"timezone":"America\/Chicago"},{"id":"3592428","gmt":"3","airport_id":"2022","iata_code":"EDL","city_iata_code":"EDL","icao_code":"HKED","country_iso2":"KE","geoname_id":"6297303","latitude":"0.4054","longitude":"35.2236","airport_name":"Eldoret","country_name":"Kenya","phone_number":null,"timezone":"Africa\/Nairobi"},{"id":"3592429","gmt":"1","airport_id":"2023","iata_code":"EDM","city_iata_code":"EDM","icao_code":"LFRI","country_iso2":"FR","geoname_id":"6299454","latitude":"46.7","longitude":"-1.383333","airport_name":"Les Ajoncs","country_name":"France","phone_number":null,"timezone":"Europe\/Paris"},{"id":"3592430","gmt":"3","airport_id":"2024","iata_code":"EDO","city_iata_code":"EDO","icao_code":"LTFD","country_iso2":"TR","geoname_id":"7668333","latitude":"39.583332","longitude":"27.033333","airport_name":"Edremit\/korfez","country_name":"Turkey","phone_number":null,"timezone":"Europe\/Istanbul"},{"id":"3592432","gmt":"10","airport_id":"2026","iata_code":"EDR","city_iata_code":"EDR","icao_code":"YPMP","country_iso2":"AU","geoname_id":"7730999","latitude":"-14.9","longitude":"141.61667","airport_name":"Edward River","country_name":"Australia","phone_number":null,"timezone":"Australia\/Brisbane"}]}