{"pagination":{"offset":4400,"limit":100,"count":100,"total":6710},"data":[{"id":"3596687","gmt":"10","airport_id":"6281","iata_code":"PQQ","city_iata_code":"PQQ","icao_code":"YPMQ","country_iso2":"AU","geoname_id":"7668762","latitude":"-31.431402","longitude":"152.86723","airport_name":"Port Macquarie","country_name":"Australia","phone_number":null,"timezone":"Australia\/Sydney"},{"id":"3596690","gmt":"-3","airport_id":"6284","iata_code":"PRA","city_iata_code":"PRA","icao_code":"SAAP","country_iso2":"AR","geoname_id":"6300512","latitude":"-31.795","longitude":"-60.48","airport_name":"Parana","country_name":"Argentina","phone_number":null,"timezone":"America\/Argentina\/Cordoba"},{"id":"3596691","gmt":"-8","airport_id":"6285","iata_code":"PRB","city_iata_code":"PRB","icao_code":"KPRB","country_iso2":"US","geoname_id":"5381445","latitude":"35.670555","longitude":"-120.62583","airport_name":"Paso Robles","country_name":"United States","phone_number":null,"timezone":"America\/Los_Angeles"},{"id":"3596692","gmt":"-7","airport_id":"6286","iata_code":"PRC","city_iata_code":"PRC","icao_code":"KPRC","country_iso2":"US","geoname_id":"5309842","latitude":"34.65","longitude":"-112.424164","airport_name":"Prescott","country_name":"United States","phone_number":null,"timezone":"America\/Phoenix"},{"id":"3596693","gmt":"8","airport_id":"6287","iata_code":"PRD","city_iata_code":"PRD","icao_code":"YPDO","country_iso2":"AU","geoname_id":"7731411","latitude":"-20.1","longitude":"119.11667","airport_name":"Pardoo","country_name":"Australia","phone_number":null,"timezone":"Australia\/Perth"},{"id":"3596696","gmt":"1","airport_id":"6290","iata_code":"PRG","city_iata_code":"PRG","icao_code":"LKPR","country_iso2":"CZ","geoname_id":"6299654","latitude":"50.10619","longitude":"14.266638","airport_name":"Prague Vaclav Havel Airport","country_name":"Czech Republic","phone_number":"+420 220-111-","timezone":"Europe\/Prague"},{"id":"3596697","gmt":"7","airport_id":"6291","iata_code":"PRH","city_iata_code":"PRH","icao_code":"VTCP","country_iso2":"TH","geoname_id":"1607552","latitude":"18.15","longitude":"100.13333","airport_name":"Phrae","country_name":"Thailand","phone_number":null,"timezone":"Asia\/Bangkok"},{"id":"3596698","gmt":"4","airport_id":"6292","iata_code":"PRI","city_iata_code":"PRI","icao_code":"FSPP","country_iso2":"SC","geoname_id":"6453411","latitude":"-4.323883","longitude":"55.692314","airport_name":"Praslin Island","country_name":"Seychelles","phone_number":null,"timezone":"Indian\/Mahe"},{"id":"3596702","gmt":null,"airport_id":"6296","iata_code":"PRM","city_iata_code":"PRM","icao_code":"LPPM","country_iso2":"PT","geoname_id":"7668328","latitude":"37.13333","longitude":"-8.533333","airport_name":"Portimao","country_name":"Portugal","phone_number":null,"timezone":"Europe\/Lisbon"},{"id":"3596703","gmt":"1","airport_id":"6297","iata_code":"PRN","city_iata_code":"PRN","icao_code":"LYPR","country_iso2":"RS","geoname_id":"6299782","latitude":"42.573612","longitude":"21.035557","airport_name":"Pristina International","country_name":"Serbia","phone_number":null,"timezone":"Europe\/Belgrade"},{"id":"3596704","gmt":"-6","airport_id":"6298","iata_code":"PRO","city_iata_code":"PRO","icao_code":"KPRO","country_iso2":"US","geoname_id":"4871036","latitude":"41.85","longitude":"-94.1","airport_name":"Perry Municipal","country_name":"United States","phone_number":null,"timezone":"America\/Chicago"},{"id":"3596707","gmt":"-4","airport_id":"6301","iata_code":"PRR","city_iata_code":"PRR","icao_code":"SYPR","country_iso2":"GY","geoname_id":"7731412","latitude":"5.8","longitude":"-61.05","airport_name":"Paruima","country_name":"Guyana","phone_number":null,"timezone":"America\/Guyana"},{"id":"3596708","gmt":"11","airport_id":"6302","iata_code":"PRS","city_iata_code":"PRS","icao_code":"AGGP","country_iso2":"SB","geoname_id":"7730405","latitude":"-8.166667","longitude":"158","airport_name":"Parasi","country_name":"Solomon Islands","phone_number":null,"timezone":"Pacific\/Guadalcanal"},{"id":"3596710","gmt":"6.30","airport_id":"6304","iata_code":"PRU","city_iata_code":"PRU","icao_code":"VYPY","country_iso2":"MM","geoname_id":"7731413","latitude":"18.825","longitude":"95.26861","airport_name":"Prome","country_name":null,"phone_number":null,"timezone":"Asia\/Rangoon"},{"id":"3596711","gmt":"1","airport_id":"6305","iata_code":"PRV","city_iata_code":"PRV","icao_code":"LKPO","country_iso2":"CZ","geoname_id":"7730635","latitude":"49.59028","longitude":"17.208332","airport_name":"Prerov","country_name":"Czech Republic","phone_number":null,"timezone":"Europe\/Prague"},{"id":"3596713","gmt":"-6","airport_id":"6307","iata_code":"PRX","city_iata_code":"PRX","icao_code":"KPRX","country_iso2":"US","geoname_id":"4717560","latitude":"33.636665","longitude":"-95.45028","airport_name":"Cox Field","country_name":"United States","phone_number":null,"timezone":"America\/Chicago"},{"id":"3596714","gmt":"2","airport_id":"6308","iata_code":"PRY","city_iata_code":"PRY","icao_code":"FAWB","country_iso2":"ZA","geoname_id":"964137","latitude":"-25.654444","longitude":"28.220833","airport_name":"Wonderboom Airport.","country_name":"South Africa","phone_number":null,"timezone":"Africa\/Johannesburg"},{"id":"3596716","gmt":"1","airport_id":"6310","iata_code":"PSA","city_iata_code":"PSA","icao_code":"LIRP","country_iso2":"IT","geoname_id":"6299628","latitude":"43.69871","longitude":"10.399915","airport_name":"Galileo Galilei","country_name":"Italy","phone_number":null,"timezone":"Europe\/Rome"},{"id":"3596718","gmt":"-8","airport_id":"6312","iata_code":"PSC","city_iata_code":"PSC","icao_code":"KPSC","country_iso2":"US","geoname_id":"5813894","latitude":"46.259094","longitude":"-119.1152","airport_name":"Tri-cities","country_name":"United States","phone_number":null,"timezone":"America\/Los_Angeles"},{"id":"3596719","gmt":"2","airport_id":"6313","iata_code":"PSD","city_iata_code":"PSD","icao_code":"HEPS","country_iso2":"EG","geoname_id":"6297297","latitude":"31.266666","longitude":"32.3","airport_name":"Port Said","country_name":"Egypt","phone_number":null,"timezone":"Africa\/Cairo"},{"id":"3596720","gmt":"-4","airport_id":"6314","iata_code":"PSE","city_iata_code":"PSE","icao_code":"TJPS","country_iso2":"PR","geoname_id":"4566880","latitude":"18.010702","longitude":"-66.563545","airport_name":"Mercedita","country_name":"Puerto Rico","phone_number":null,"timezone":"America\/Puerto_Rico"},{"id":"3596722","gmt":"-9","airport_id":"6316","iata_code":"PSG","city_iata_code":"PSG","icao_code":"PAPG","country_iso2":"US","geoname_id":"5556350","latitude":"56.80417","longitude":"-132.9425","airport_name":"Petersburg James A Johnson","country_name":"United States","phone_number":null,"timezone":"America\/Anchorage"},{"id":"3596725","gmt":"8","airport_id":"6319","iata_code":"PSJ","city_iata_code":"PSJ","icao_code":"WAMP","country_iso2":"ID","geoname_id":"6301196","latitude":"-1.383333","longitude":"120.73333","airport_name":"Poso","country_name":"Indonesia","phone_number":null,"timezone":"Asia\/Makassar"},{"id":"3596726","gmt":"-5","airport_id":"6320","iata_code":"PSK","city_iata_code":"PSK","icao_code":"KPSK","country_iso2":"US","geoname_id":"4775918","latitude":"37.137222","longitude":"-80.67861","airport_name":"New River Valley","country_name":"United States","phone_number":null,"timezone":"America\/New_York"},{"id":"3596727","gmt":null,"airport_id":"6321","iata_code":"PSL","city_iata_code":"PSL","icao_code":"EGPT","country_iso2":"GB","geoname_id":"6296634","latitude":"56.233334","longitude":"-3.566667","airport_name":"Perth","country_name":"United Kingdom","phone_number":null,"timezone":"Europe\/London"},{"id":"3596728","gmt":"-5","airport_id":"6322","iata_code":"PSM","city_iata_code":"BOS","icao_code":"KPSM","country_iso2":"US","geoname_id":"5090907","latitude":"43.179585","longitude":"-70.88272","airport_name":"Pease International","country_name":"United States","phone_number":null,"timezone":"America\/New_York"},{"id":"3596730","gmt":"-5","airport_id":"6324","iata_code":"PSO","city_iata_code":"PSO","icao_code":"SKPS","country_iso2":"CO","geoname_id":"6300753","latitude":"1.466667","longitude":"-77.25","airport_name":"Cano","country_name":"Colombia","phone_number":null,"timezone":"America\/Bogota"},{"id":"3596731","gmt":"-8","airport_id":"6325","iata_code":"PSP","city_iata_code":"PSP","icao_code":"KPSP","country_iso2":"US","geoname_id":"5380677","latitude":"33.822975","longitude":"-116.508446","airport_name":"Palm Springs Metropolitan Area","country_name":"United States","phone_number":null,"timezone":"America\/Los_Angeles"},{"id":"3596733","gmt":"1","airport_id":"6327","iata_code":"PSR","city_iata_code":"PSR","icao_code":"LIBP","country_iso2":"IT","geoname_id":"6299540","latitude":"42.43722","longitude":"14.187222","airport_name":"Liberi","country_name":"Italy","phone_number":null,"timezone":"Europe\/Rome"},{"id":"3596734","gmt":"-3","airport_id":"6328","iata_code":"PSS","city_iata_code":"PSS","icao_code":"SARP","country_iso2":"AR","geoname_id":"6300552","latitude":"-27.383888","longitude":"-55.9675","airport_name":"Posadas","country_name":"Argentina","phone_number":null,"timezone":"America\/Argentina\/Cordoba"},{"id":"3596736","gmt":"8","airport_id":"6330","iata_code":"PSU","city_iata_code":"PSU","icao_code":"WIOP","country_iso2":"ID","geoname_id":"7668674","latitude":"0.833333","longitude":"112.933334","airport_name":"Putussibau","country_name":"Indonesia","phone_number":null,"timezone":"Asia\/Makassar"},{"id":"3596738","gmt":"-3","airport_id":"6332","iata_code":"PSW","city_iata_code":"PSW","icao_code":"SNOS","country_iso2":"BR","geoname_id":"7731414","latitude":"-20.716667","longitude":"-46.61667","airport_name":"Passos","country_name":"Brazil","phone_number":null,"timezone":"America\/Sao_Paulo"},{"id":"3596739","gmt":"-6","airport_id":"6333","iata_code":"PSX","city_iata_code":"PSX","icao_code":"KPSX","country_iso2":"US","geoname_id":"4717224","latitude":"28.7","longitude":"-96.25","airport_name":"Palacios","country_name":"United States","phone_number":null,"timezone":"America\/Chicago"},{"id":"3596740","gmt":"-3","airport_id":"6334","iata_code":"PSY","city_iata_code":"PSY","icao_code":"SFAL","country_iso2":"FK","geoname_id":"6300726","latitude":"-51.7","longitude":"-57.85","airport_name":"Port Stanley","country_name":"Falkland Islands","phone_number":null,"timezone":"Atlantic\/Stanley"},{"id":"3596741","gmt":"-4","airport_id":"6335","iata_code":"PSZ","city_iata_code":"PSZ","icao_code":"SLPS","country_iso2":"BO","geoname_id":"6300780","latitude":"-18.966667","longitude":"-57.8","airport_name":"Puerto Suarez","country_name":"Bolivia","phone_number":null,"timezone":"America\/La_Paz"},{"id":"3596742","gmt":"-9","airport_id":"6336","iata_code":"PTA","city_iata_code":"PTA","icao_code":"PALJ","country_iso2":"US","geoname_id":"5871907","latitude":"60.2","longitude":"-145.33333","airport_name":"Port Alsworth","country_name":"United States","phone_number":null,"timezone":"America\/Anchorage"},{"id":"3596743","gmt":"-5","airport_id":"6337","iata_code":"PTB","city_iata_code":"PTB","icao_code":"KPTB","country_iso2":"US","geoname_id":"6298936","latitude":"37.216667","longitude":"-77.4","airport_name":"Dinwiddie County Airport","country_name":"United States","phone_number":null,"timezone":"America\/New_York"},{"id":"3596745","gmt":"-9","airport_id":"6339","iata_code":"PTD","city_iata_code":"PTD","icao_code":"PAAP","country_iso2":"US","geoname_id":"5556494","latitude":"56.25","longitude":"-134.65","airport_name":"Port Alexander","country_name":"United States","phone_number":null,"timezone":"America\/Anchorage"},{"id":"3596746","gmt":"12","airport_id":"6340","iata_code":"PTF","city_iata_code":"PTF","icao_code":"NFFO","country_iso2":"FJ","geoname_id":"7730688","latitude":"-17.783333","longitude":"177.21666","airport_name":"Malololailai","country_name":null,"phone_number":null,"timezone":"Pacific\/Fiji"},{"id":"3596747","gmt":"2","airport_id":"6341","iata_code":"PTG","city_iata_code":"PTG","icao_code":"FAPI","country_iso2":"ZA","geoname_id":"965294","latitude":"-23.916668","longitude":"29.966667","airport_name":"Polokwane","country_name":"South Africa","phone_number":null,"timezone":"Africa\/Johannesburg"},{"id":"3596748","gmt":"-9","airport_id":"6342","iata_code":"PTH","city_iata_code":"PTH","icao_code":"PAPH","country_iso2":"US","geoname_id":"5871922","latitude":"56.95667","longitude":"-158.6375","airport_name":"Port Heiden","country_name":"United States","phone_number":null,"timezone":"America\/Anchorage"},{"id":"3596750","gmt":"10","airport_id":"6344","iata_code":"PTJ","city_iata_code":"PTJ","icao_code":"YPOR","country_iso2":"AU","geoname_id":"7730272","latitude":"-38.384167","longitude":"141.625","airport_name":"Portland","country_name":"Australia","phone_number":null,"timezone":"Australia\/Melbourne"},{"id":"3596751","gmt":"-5","airport_id":"6345","iata_code":"PTK","city_iata_code":"PTK","icao_code":"KPTK","country_iso2":"US","geoname_id":"5006166","latitude":"42.664722","longitude":"-83.41139","airport_name":"Pontiac","country_name":"United States","phone_number":null,"timezone":"America\/Detroit"},{"id":"3596754","gmt":"-6","airport_id":"6348","iata_code":"PTN","city_iata_code":"PTN","icao_code":"KPTN","country_iso2":"US","geoname_id":"4336646","latitude":"29.708332","longitude":"-91.3375","airport_name":"Williams Memorial","country_name":"United States","phone_number":null,"timezone":"America\/Chicago"},{"id":"3596755","gmt":"-3","airport_id":"6349","iata_code":"PTO","city_iata_code":"PTO","icao_code":"SSPB","country_iso2":"BR","geoname_id":"7731415","latitude":"-26.216667","longitude":"-52.666668","airport_name":"Pato Branco","country_name":"Brazil","phone_number":null,"timezone":"America\/Sao_Paulo"},{"id":"3596756","gmt":"-4","airport_id":"6350","iata_code":"PTP","city_iata_code":"PTP","icao_code":"TFFR","country_iso2":"GP","geoname_id":"3578597","latitude":"16.2675","longitude":"-61.52639","airport_name":"Le Raizet","country_name":"Guadeloupe","phone_number":null,"timezone":"America\/Guadeloupe"},{"id":"3596757","gmt":"-3","airport_id":"6351","iata_code":"PTQ","city_iata_code":"PTQ","icao_code":"SNMZ","country_iso2":"BR","geoname_id":"7731416","latitude":"-1.738889","longitude":"-52.244446","airport_name":"Porto de Moz","country_name":"Brazil","phone_number":null,"timezone":"America\/Belem"},{"id":"3596759","gmt":"-6","airport_id":"6353","iata_code":"PTS","city_iata_code":"PTS","icao_code":"KPTS","country_iso2":"US","geoname_id":"4277241","latitude":"37.446667","longitude":"-94.73055","airport_name":"Atkinson Municipal Airport","country_name":"United States","phone_number":null,"timezone":"America\/Chicago"},{"id":"3596760","gmt":"-6","airport_id":"6354","iata_code":"PTT","city_iata_code":"PTT","icao_code":"KPTT","country_iso2":"US","geoname_id":"4277737","latitude":"37.716667","longitude":"-98.75","airport_name":"Pratt","country_name":"United States","phone_number":null,"timezone":"America\/Chicago"},{"id":"3596761","gmt":"-9","airport_id":"6355","iata_code":"PTU","city_iata_code":"PTU","icao_code":"PAPM","country_iso2":"US","geoname_id":"5871731","latitude":"59.01139","longitude":"-161.81694","airport_name":"Platinum","country_name":"United States","phone_number":null,"timezone":"America\/Anchorage"},{"id":"3596762","gmt":"-8","airport_id":"6356","iata_code":"PTV","city_iata_code":"PTV","icao_code":"KPTV","country_iso2":"US","geoname_id":"5384471","latitude":"36.066666","longitude":"-119.01667","airport_name":"Porterville","country_name":"United States","phone_number":null,"timezone":"America\/Los_Angeles"},{"id":"3596763","gmt":"-5","airport_id":"6357","iata_code":"PTW","city_iata_code":"PTW","icao_code":"KPTW","country_iso2":"US","geoname_id":"5207075","latitude":"40.25","longitude":"-75.63333","airport_name":"Pottstown\/Limerick","country_name":"United States","phone_number":null,"timezone":"America\/New_York"},{"id":"3596764","gmt":"-5","airport_id":"6358","iata_code":"PTX","city_iata_code":"PTX","icao_code":"SKPI","country_iso2":"CO","geoname_id":"7730173","latitude":"1.85","longitude":"-76.03333","airport_name":"Pitalito","country_name":"Colombia","phone_number":null,"timezone":"America\/Bogota"},{"id":"3596765","gmt":"-5","airport_id":"6359","iata_code":"PTY","city_iata_code":"PTY","icao_code":"MPTO","country_iso2":"PA","geoname_id":"3700562","latitude":"9.066897","longitude":"-79.38764","airport_name":"Tocumen International","country_name":"Panama","phone_number":null,"timezone":"America\/Panama"},{"id":"3596766","gmt":"-5","airport_id":"6360","iata_code":"PTZ","city_iata_code":"PTZ","icao_code":"SEPA","country_iso2":"EC","geoname_id":"6300720","latitude":"-2","longitude":"-77","airport_name":"Pastaza","country_name":"Ecuador","phone_number":null,"timezone":"America\/Guayaquil"},{"id":"3596768","gmt":"-7","airport_id":"6362","iata_code":"PUB","city_iata_code":"PUB","icao_code":"KPUB","country_iso2":"US","geoname_id":"5435472","latitude":"38.292778","longitude":"-104.49611","airport_name":"Memorial","country_name":"United States","phone_number":null,"timezone":"America\/Denver"},{"id":"3596769","gmt":"-7","airport_id":"6363","iata_code":"PUC","city_iata_code":"PUC","icao_code":"KPUC","country_iso2":"US","geoname_id":"5545269","latitude":"39.609722","longitude":"-110.75278","airport_name":"Carbon County","country_name":"United States","phone_number":null,"timezone":"America\/Denver"},{"id":"3596770","gmt":"-3","airport_id":"6364","iata_code":"PUD","city_iata_code":"PUD","icao_code":"SAWD","country_iso2":"AR","geoname_id":"6300571","latitude":"-47.75","longitude":"-65.916664","airport_name":"Puerto Deseado","country_name":"Argentina","phone_number":null,"timezone":"America\/Argentina\/Rio_Gallegos"},{"id":"3596771","gmt":"-5","airport_id":"6365","iata_code":"PUE","city_iata_code":"PUE","icao_code":"MPOA","country_iso2":"PA","geoname_id":"8299139","latitude":"8.66694","longitude":"-77.41694","airport_name":"Puerto Obaldia","country_name":"Panama","phone_number":null,"timezone":"America\/Panama"},{"id":"3596772","gmt":"1","airport_id":"6366","iata_code":"PUF","city_iata_code":"PUF","icao_code":"LFBP","country_iso2":"FR","geoname_id":"6299377","latitude":"43.382347","longitude":"-0.413573","airport_name":"Pau-Pyr\u00e9n\u00e9es","country_name":"France","phone_number":null,"timezone":"Europe\/Paris"},{"id":"3596773","gmt":"9.30","airport_id":"6367","iata_code":"PUG","city_iata_code":"PUG","icao_code":"YPAG","country_iso2":"AU","geoname_id":"7730270","latitude":"-32.5","longitude":"137.76666","airport_name":"Port Augusta","country_name":"Australia","phone_number":null,"timezone":"Australia\/Adelaide"},{"id":"3596775","gmt":"-4","airport_id":"6369","iata_code":"PUJ","city_iata_code":"PUJ","icao_code":"MDPC","country_iso2":"DO","geoname_id":"3494242","latitude":"18.562477","longitude":"-68.364","airport_name":"Punta Cana International","country_name":"Dominican Republic","phone_number":"809-959-2376","timezone":"America\/Santo_Domingo"},{"id":"3596776","gmt":"-10","airport_id":"6370","iata_code":"PUK","city_iata_code":"PUK","icao_code":"NTGQ","country_iso2":"PF","geoname_id":"7730699","latitude":"-18.296125","longitude":"-137.01784","airport_name":"Pukarua","country_name":"French Polynesia","phone_number":null,"timezone":"Pacific\/Tahiti"},{"id":"3596779","gmt":"2","airport_id":"6373","iata_code":"PUN","city_iata_code":"PUN","icao_code":"FZOP","country_iso2":"CD","geoname_id":"7730565","latitude":"-1.366667","longitude":"26.333332","airport_name":"Punia","country_name":"Democratic Republic of the Congo","phone_number":null,"timezone":"Africa\/Lubumbashi"},{"id":"3596781","gmt":null,"airport_id":"6375","iata_code":"PUP","city_iata_code":"PUP","icao_code":"DFCP","country_iso2":"BF","geoname_id":"6296406","latitude":"11.183333","longitude":"-1.166667","airport_name":"Po","country_name":"Burkina Faso","phone_number":null,"timezone":"Africa\/Ouagadougou"},{"id":"3596782","gmt":"-4","airport_id":"6376","iata_code":"PUQ","city_iata_code":"PUQ","icao_code":"SCCI","country_iso2":"CL","geoname_id":"6300693","latitude":"-53.005356","longitude":"-70.84307","airport_name":"Pres Ibanez","country_name":null,"phone_number":null,"timezone":"America\/Santiago"},{"id":"3596783","gmt":"-4","airport_id":"6377","iata_code":"PUR","city_iata_code":"PUR","icao_code":"SLPR","country_iso2":"BO","geoname_id":"7731417","latitude":"-11.1125","longitude":"-67.52","airport_name":"Puerto Rico","country_name":"Bolivia","phone_number":null,"timezone":"America\/La_Paz"},{"id":"3596784","gmt":"9","airport_id":"6378","iata_code":"PUS","city_iata_code":"PUS","icao_code":"RKPK","country_iso2":"KR","geoname_id":"6300424","latitude":"35.179317","longitude":"128.94873","airport_name":"Gimhae","country_name":"South Korea","phone_number":null,"timezone":"Asia\/Seoul"},{"id":"3596785","gmt":"5.30","airport_id":"6379","iata_code":"PUT","city_iata_code":"PUT","icao_code":"VOPN","country_iso2":"IN","geoname_id":"7729986","latitude":"14.133333","longitude":"77.78333","airport_name":"Puttaprathe","country_name":"India","phone_number":null,"timezone":"Asia\/Kolkata"},{"id":"3596786","gmt":"-5","airport_id":"6380","iata_code":"PUU","city_iata_code":"PUU","icao_code":"SKAS","country_iso2":"CO","geoname_id":"6300734","latitude":"0.533333","longitude":"-76.53333","airport_name":"Puerto Asis","country_name":"Colombia","phone_number":null,"timezone":"America\/Bogota"},{"id":"3596787","gmt":"11","airport_id":"6381","iata_code":"PUV","city_iata_code":"PUV","icao_code":"NWWP","country_iso2":"NC","geoname_id":"7730725","latitude":"-20.294443","longitude":"164.1014","airport_name":"Poum","country_name":"New Caledonia","phone_number":null,"timezone":"Pacific\/Noumea"},{"id":"3596788","gmt":"-8","airport_id":"6382","iata_code":"PUW","city_iata_code":"PUW","icao_code":"KPUW","country_iso2":"US","geoname_id":"5807536","latitude":"46.74472","longitude":"-117.105","airport_name":"Pullman-Moscow Regional Airport","country_name":"United States","phone_number":null,"timezone":"America\/Los_Angeles"},{"id":"3596789","gmt":"-4","airport_id":"6383","iata_code":"PUX","city_iata_code":"PUX","icao_code":"SCPV","country_iso2":"CL","geoname_id":"7731418","latitude":"-40.34028","longitude":"-72.94444","airport_name":"Puerto Varas","country_name":null,"phone_number":null,"timezone":"America\/Santiago"},{"id":"3596790","gmt":"1","airport_id":"6384","iata_code":"PUY","city_iata_code":"PUY","icao_code":"LDPL","country_iso2":"HR","geoname_id":"6299319","latitude":"44.891666","longitude":"13.923611","airport_name":"Pula","country_name":"Croatia","phone_number":null,"timezone":"Europe\/Zagreb"},{"id":"3596791","gmt":"-6","airport_id":"6385","iata_code":"PUZ","city_iata_code":"PUZ","icao_code":"MNPC","country_iso2":"NI","geoname_id":"6299892","latitude":"14.045278","longitude":"-83.38361","airport_name":"Puerto Cabezas","country_name":"Nicaragua","phone_number":null,"timezone":"America\/Managua"},{"id":"3596792","gmt":"-5","airport_id":"6386","iata_code":"PVA","city_iata_code":"PVA","icao_code":"SKPV","country_iso2":"CO","geoname_id":"6300754","latitude":"13.35","longitude":"-81.35","airport_name":"Providencia","country_name":"Colombia","phone_number":null,"timezone":"America\/Bogota"},{"id":"3596794","gmt":"-5","airport_id":"6388","iata_code":"PVC","city_iata_code":"PVC","icao_code":"KPVC","country_iso2":"US","geoname_id":"4948092","latitude":"42.071945","longitude":"-70.221664","airport_name":"Provincetown","country_name":"United States","phone_number":null,"timezone":"America\/New_York"},{"id":"3596795","gmt":"-5","airport_id":"6389","iata_code":"PVD","city_iata_code":"PVD","icao_code":"KPVD","country_iso2":"US","geoname_id":"5225207","latitude":"41.72631","longitude":"-71.43632","airport_name":"T. F. Green Airport","country_name":"United States","phone_number":"888-268-7222","timezone":"America\/New_York"},{"id":"3596797","gmt":"-8","airport_id":"6391","iata_code":"PVF","city_iata_code":"PVF","icao_code":"KPVF","country_iso2":"US","geoname_id":"5383561","latitude":"38.716667","longitude":"-120.8","airport_name":"Placerville","country_name":"United States","phone_number":null,"timezone":"America\/Los_Angeles"},{"id":"3596798","gmt":"8","airport_id":"6392","iata_code":"PVG","city_iata_code":"SHA","icao_code":"ZSPD","country_iso2":"CN","geoname_id":"6301386","latitude":"31.151825","longitude":"121.799805","airport_name":"Shanghai Pudong International","country_name":"China","phone_number":"021-96990","timezone":"Asia\/Shanghai"},{"id":"3596799","gmt":"-4","airport_id":"6393","iata_code":"PVH","city_iata_code":"PVH","icao_code":"SBPV","country_iso2":"BR","geoname_id":"6300660","latitude":"-8.714311","longitude":"-63.898308","airport_name":"Governador Jorge Teixeira","country_name":"Brazil","phone_number":null,"timezone":"America\/Porto_Velho"},{"id":"3596800","gmt":"-3","airport_id":"6394","iata_code":"PVI","city_iata_code":"PVI","icao_code":"SSPI","country_iso2":"BR","geoname_id":"7731419","latitude":"-23.066668","longitude":"-52.466667","airport_name":"Edu Chaves","country_name":"Brazil","phone_number":null,"timezone":"America\/Sao_Paulo"},{"id":"3596801","gmt":"2","airport_id":"6395","iata_code":"PVK","city_iata_code":"PVK","icao_code":"LGPZ","country_iso2":"GR","geoname_id":"6299504","latitude":"38.926388","longitude":"20.765833","airport_name":"Aktion","country_name":"Greece","phone_number":null,"timezone":"Europe\/Athens"},{"id":"3596802","gmt":"-5","airport_id":"6396","iata_code":"PVO","city_iata_code":"PVO","icao_code":"SEPV","country_iso2":"EC","geoname_id":"7668450","latitude":"-1.033333","longitude":"-80.46667","airport_name":"Reales Tamarindos","country_name":"Ecuador","phone_number":null,"timezone":"America\/Guayaquil"},{"id":"3596803","gmt":"-6","airport_id":"6397","iata_code":"PVR","city_iata_code":"PVR","icao_code":"MMPR","country_iso2":"MX","geoname_id":"3998605","latitude":"20.678297","longitude":"-105.24898","airport_name":"Licenciado Gustavo D\u00edaz Ordaz International","country_name":"Mexico","phone_number":null,"timezone":"America\/Mexico_City"},{"id":"3596804","gmt":"12","airport_id":"6398","iata_code":"PVS","city_iata_code":"PVS","icao_code":"UHMD","country_iso2":"RU","geoname_id":"6300937","latitude":"64.38333","longitude":"-173.24333","airport_name":"Provideniya","country_name":"Russia","phone_number":null,"timezone":"Asia\/Anadyr"},{"id":"3596805","gmt":"-7","airport_id":"6399","iata_code":"PVU","city_iata_code":"PVU","icao_code":"KPVU","country_iso2":"US","geoname_id":"5780035","latitude":"40.218056","longitude":"-111.72222","airport_name":"Provo","country_name":"United States","phone_number":null,"timezone":"America\/Denver"},{"id":"3596806","gmt":"-6","airport_id":"6400","iata_code":"PVW","city_iata_code":"PVW","icao_code":"KPVW","country_iso2":"US","geoname_id":"5528450","latitude":"34.183334","longitude":"-101.71667","airport_name":"Hale County","country_name":"United States","phone_number":null,"timezone":"America\/Chicago"},{"id":"3596808","gmt":"-6","airport_id":"6402","iata_code":"PWA","city_iata_code":"OKC","icao_code":"KPWA","country_iso2":"US","geoname_id":"4555696","latitude":"35.466667","longitude":"-97.53333","airport_name":"Wiley Post","country_name":"United States","phone_number":null,"timezone":"America\/Chicago"},{"id":"3596810","gmt":"12","airport_id":"6404","iata_code":"PWE","city_iata_code":"PWE","icao_code":"UHMP","country_iso2":"RU","geoname_id":"6453417","latitude":"69.78333","longitude":"170.6","airport_name":"Pevek","country_name":"Russia","phone_number":null,"timezone":"Asia\/Anadyr"},{"id":"3596812","gmt":"-6","airport_id":"6406","iata_code":"PWK","city_iata_code":"CHI","icao_code":"KPWK","country_iso2":"US","geoname_id":"4905209","latitude":"42.114166","longitude":"-87.901665","airport_name":"Pal-Waukee","country_name":"United States","phone_number":null,"timezone":"America\/Chicago"},{"id":"3596814","gmt":"-5","airport_id":"6408","iata_code":"PWM","city_iata_code":"PWM","icao_code":"KPWM","country_iso2":"US","geoname_id":"4975822","latitude":"43.64749","longitude":"-70.31031","airport_name":"International Jetport","country_name":"United States","phone_number":"207-874-8877","timezone":"America\/New_York"},{"id":"3596815","gmt":"-5","airport_id":"6409","iata_code":"PWN","city_iata_code":"PWN","icao_code":"MYCP","country_iso2":"BS","geoname_id":"7730682","latitude":"22.833332","longitude":"-74.35","airport_name":"Pitts Town","country_name":"Bahamas","phone_number":null,"timezone":"America\/Nassau"},{"id":"3596816","gmt":"2","airport_id":"6410","iata_code":"PWO","city_iata_code":"PWO","icao_code":"FZQC","country_iso2":"CD","geoname_id":"7730566","latitude":"-8.466667","longitude":"28.9","airport_name":"Pweto","country_name":"Democratic Republic of the Congo","phone_number":null,"timezone":"Africa\/Lubumbashi"},{"id":"3596817","gmt":"6","airport_id":"6411","iata_code":"PWQ","city_iata_code":"PWQ","icao_code":"UASP","country_iso2":"KZ","geoname_id":"7668493","latitude":"52.183334","longitude":"77.066666","airport_name":"Pavlodar","country_name":"Kazakhstan","phone_number":null,"timezone":"Asia\/Almaty"},{"id":"3596819","gmt":"-8","airport_id":"6413","iata_code":"PWT","city_iata_code":"PWT","icao_code":"KPWT","country_iso2":"US","geoname_id":"5788062","latitude":"47.485","longitude":"-122.763336","airport_name":"Bremerton","country_name":"United States","phone_number":null,"timezone":"America\/Los_Angeles"},{"id":"3596820","gmt":"9.30","airport_id":"6414","iata_code":"PXH","city_iata_code":"PXH","icao_code":"YPMH","country_iso2":"AU","geoname_id":"8260756","latitude":"-29.72108","longitude":"135.52348","airport_name":"Prominent Hill","country_name":"Australia","phone_number":null,"timezone":"Australia\/Adelaide"},{"id":"3596822","gmt":"-6","airport_id":"6416","iata_code":"PXM","city_iata_code":"PXM","icao_code":"MMPS","country_iso2":"MX","geoname_id":"6299868","latitude":"15.85","longitude":"-97.083336","airport_name":"Puerto Escondido","country_name":"Mexico","phone_number":null,"timezone":"America\/Mexico_City"},{"id":"3596823","gmt":null,"airport_id":"6417","iata_code":"PXO","city_iata_code":"PXO","icao_code":"LPPS","country_iso2":"PT","geoname_id":"6299689","latitude":"33.070023","longitude":"-16.345015","airport_name":"Porto Santo","country_name":"Portugal","phone_number":null,"timezone":"Atlantic\/Madeira"},{"id":"3596826","gmt":"7","airport_id":"6420","iata_code":"PXU","city_iata_code":"PXU","icao_code":"VVPK","country_iso2":"VN","geoname_id":"6301173","latitude":"14.006346","longitude":"108.00896","airport_name":"Pleiku","country_name":null,"phone_number":null,"timezone":"Asia\/Ho_Chi_Minh"}]}