{"pagination":{"offset":5100,"limit":100,"count":100,"total":6710},"data":[{"id":"3597779","gmt":"-9","airport_id":"7373","iata_code":"STG","city_iata_code":"STG","icao_code":"PAPB","country_iso2":"US","geoname_id":"5869873","latitude":"56.6","longitude":"-169.5525","airport_name":"St George Island","country_name":"United States","phone_number":null,"timezone":"America\/Anchorage"},{"id":"3597780","gmt":"10","airport_id":"7374","iata_code":"STH","city_iata_code":"STH","icao_code":"YSMR","country_iso2":"AU","geoname_id":"7731515","latitude":"-17.833332","longitude":"142.58333","airport_name":"Strathmore","country_name":"Australia","phone_number":null,"timezone":"Australia\/Brisbane"},{"id":"3597781","gmt":"-4","airport_id":"7375","iata_code":"STI","city_iata_code":"STI","icao_code":"MDST","country_iso2":"DO","geoname_id":"3509625","latitude":"19.401829","longitude":"-70.60208","airport_name":"Cibao International Airport","country_name":"Dominican Republic","phone_number":null,"timezone":"America\/Santo_Domingo"},{"id":"3597782","gmt":"-6","airport_id":"7376","iata_code":"STJ","city_iata_code":"STJ","icao_code":"KSTJ","country_iso2":"US","geoname_id":"4406399","latitude":"39.960556","longitude":"-94.925","airport_name":"Rosecrans Memorial","country_name":"United States","phone_number":null,"timezone":"America\/Chicago"},{"id":"3597784","gmt":"-6","airport_id":"7378","iata_code":"STL","city_iata_code":"STL","icao_code":"KSTL","country_iso2":"US","geoname_id":"4394516","latitude":"38.74228","longitude":"-90.36587","airport_name":"Lambert-St. Louis International","country_name":"United States","phone_number":"314-426-8000","timezone":"America\/Chicago"},{"id":"3597785","gmt":"-3","airport_id":"7379","iata_code":"STM","city_iata_code":"STM","icao_code":"SBSN","country_iso2":"BR","geoname_id":"6300672","latitude":"-2.424886","longitude":"-54.78639","airport_name":"Eduardo Gomes","country_name":"Brazil","phone_number":null,"timezone":"America\/Santarem"},{"id":"3597786","gmt":null,"airport_id":"7380","iata_code":"STN","city_iata_code":"LON","icao_code":"EGSS","country_iso2":"GB","geoname_id":"6296645","latitude":"51.889267","longitude":"0.262703","airport_name":"Stansted","country_name":"United Kingdom","phone_number":null,"timezone":"Europe\/London"},{"id":"3597787","gmt":"-6","airport_id":"7381","iata_code":"STP","city_iata_code":"MSP","icao_code":"KSTP","country_iso2":"US","geoname_id":null,"latitude":"44.933334","longitude":"-93.066666","airport_name":"Downtown","country_name":"United States","phone_number":null,"timezone":"America\/Chicago"},{"id":"3597788","gmt":"-5","airport_id":"7382","iata_code":"STQ","city_iata_code":"STQ","icao_code":"KOYM","country_iso2":"US","geoname_id":"5210198","latitude":"41.433334","longitude":"-78.566666","airport_name":"St Marys","country_name":"United States","phone_number":null,"timezone":"America\/New_York"},{"id":"3597789","gmt":"1","airport_id":"7383","iata_code":"STR","city_iata_code":"STR","icao_code":"EDDS","country_iso2":"DE","geoname_id":"3206322","latitude":"48.69073","longitude":"9.193624","airport_name":"Stuttgart Echterdingen","country_name":"Germany","phone_number":null,"timezone":"Europe\/Berlin"},{"id":"3597790","gmt":"-8","airport_id":"7384","iata_code":"STS","city_iata_code":"STS","icao_code":"KSTS","country_iso2":"US","geoname_id":"5397102","latitude":"38.50889","longitude":"-122.81167","airport_name":"Sonoma County","country_name":"United States","phone_number":null,"timezone":"America\/Los_Angeles"},{"id":"3597791","gmt":"-4","airport_id":"7385","iata_code":"STT","city_iata_code":"STT","icao_code":"TIST","country_iso2":"VI","geoname_id":"4795586","latitude":"18.3375","longitude":"-64.969444","airport_name":"Cyril E King Airport","country_name":"U.S. Virgin Islands","phone_number":null,"timezone":"America\/St_Thomas"},{"id":"3597793","gmt":"5.30","airport_id":"7387","iata_code":"STV","city_iata_code":"STV","icao_code":"VASU","country_iso2":"IN","geoname_id":"7668581","latitude":"21.117659","longitude":"72.745255","airport_name":"Surat","country_name":"India","phone_number":null,"timezone":"Asia\/Kolkata"},{"id":"3597794","gmt":"3","airport_id":"7388","iata_code":"STW","city_iata_code":"STW","icao_code":"URMT","country_iso2":"RU","geoname_id":"6300993","latitude":"45.333332","longitude":"42.00833","airport_name":"Stavropol","country_name":"Russia","phone_number":null,"timezone":"Europe\/Moscow"},{"id":"3597795","gmt":"-4","airport_id":"7389","iata_code":"STX","city_iata_code":"STX","icao_code":"TISX","country_iso2":"VI","geoname_id":"4795893","latitude":"17.701944","longitude":"-64.798615","airport_name":"Henry E Rohlsen","country_name":"U.S. Virgin Islands","phone_number":null,"timezone":"America\/St_Thomas"},{"id":"3597796","gmt":"-3","airport_id":"7390","iata_code":"STY","city_iata_code":"STY","icao_code":"SUSO","country_iso2":"UY","geoname_id":"3441482","latitude":"-31.436666","longitude":"-57.988335","airport_name":"Salto","country_name":"Uruguay","phone_number":null,"timezone":"America\/Montevideo"},{"id":"3597797","gmt":"-4","airport_id":"7391","iata_code":"STZ","city_iata_code":"STZ","icao_code":"SWST","country_iso2":"BR","geoname_id":"7731516","latitude":"-10.300278","longitude":"-50.45","airport_name":"Confresa","country_name":"Brazil","phone_number":null,"timezone":"America\/Cuiaba"},{"id":"3597798","gmt":"-5","airport_id":"7392","iata_code":"SUA","city_iata_code":"SUA","icao_code":"KSUA","country_iso2":"US","geoname_id":"4174201","latitude":"27.2","longitude":"-80.25","airport_name":"Witham Field","country_name":"United States","phone_number":null,"timezone":"America\/New_York"},{"id":"3597799","gmt":"7","airport_id":"7393","iata_code":"SUB","city_iata_code":"SUB","icao_code":"WRSJ","country_iso2":"ID","geoname_id":"6301284","latitude":"-7.38387","longitude":"112.77724","airport_name":"Juanda","country_name":"Indonesia","phone_number":null,"timezone":"Asia\/Jakarta"},{"id":"3597803","gmt":"1","airport_id":"7397","iata_code":"SUF","city_iata_code":"SUF","icao_code":"LICA","country_iso2":"IT","geoname_id":"6534232","latitude":"38.910015","longitude":"16.244972","airport_name":"Lamezia Terme","country_name":"Italy","phone_number":null,"timezone":"Europe\/Rome"},{"id":"3597804","gmt":"8","airport_id":"7398","iata_code":"SUG","city_iata_code":"SUG","icao_code":"RPWS","country_iso2":"PH","geoname_id":"1685218","latitude":"9.758889","longitude":"125.479164","airport_name":"Surigao","country_name":"Philippines","phone_number":null,"timezone":"Asia\/Manila"},{"id":"3597806","gmt":"4","airport_id":"7400","iata_code":"SUI","city_iata_code":"SUI","icao_code":"UGSS","country_iso2":"GE","geoname_id":"7668500","latitude":"42.86667","longitude":"41.11667","airport_name":"Babusheri","country_name":"Georgia","phone_number":null,"timezone":"Asia\/Tbilisi"},{"id":"3597807","gmt":"2","airport_id":"7401","iata_code":"SUJ","city_iata_code":"SUJ","icao_code":"LRSM","country_iso2":"RO","geoname_id":"6299709","latitude":"47.7","longitude":"22.883333","airport_name":"Satu Mare","country_name":"Romania","phone_number":null,"timezone":"Europe\/Bucharest"},{"id":"3597809","gmt":"5","airport_id":"7403","iata_code":"SUL","city_iata_code":"SUL","icao_code":"OPSU","country_iso2":"PK","geoname_id":"7668409","latitude":"28.64889","longitude":"69.1725","airport_name":"Sui","country_name":"Pakistan","phone_number":null,"timezone":"Asia\/Karachi"},{"id":"3597811","gmt":"-7","airport_id":"7405","iata_code":"SUN","city_iata_code":"SUN","icao_code":"KSUN","country_iso2":"US","geoname_id":"5594956","latitude":"43.50647","longitude":"-114.30082","airport_name":"Sun Valley","country_name":"United States","phone_number":null,"timezone":"America\/Boise"},{"id":"3597812","gmt":"-8","airport_id":"7406","iata_code":"SUO","city_iata_code":"SUO","icao_code":"KS21","country_iso2":"US","geoname_id":"5755338","latitude":"43.916668","longitude":"-121.5","airport_name":"Sun River","country_name":"United States","phone_number":null,"timezone":"America\/Los_Angeles"},{"id":"3597813","gmt":"7","airport_id":"7407","iata_code":"SUP","city_iata_code":"SUP","icao_code":"WART","country_iso2":"ID","geoname_id":"7731517","latitude":"-7.066667","longitude":"113.933334","airport_name":"Trunojoyo","country_name":"Indonesia","phone_number":null,"timezone":"Asia\/Jakarta"},{"id":"3597814","gmt":"-5","airport_id":"7408","iata_code":"SUQ","city_iata_code":"SUQ","icao_code":"SESC","country_iso2":"EC","geoname_id":"7731518","latitude":"-2.466667","longitude":"-78.166664","airport_name":"Sucua","country_name":"Ecuador","phone_number":null,"timezone":"America\/Guayaquil"},{"id":"3597815","gmt":"-5","airport_id":"7409","iata_code":"SUR","city_iata_code":"SUR","icao_code":"CJV7","country_iso2":"CA","geoname_id":"7730446","latitude":"52.71528","longitude":"-88.5475","airport_name":"Summer Beaver","country_name":"Canada","phone_number":null,"timezone":"America\/Toronto"},{"id":"3597816","gmt":"-6","airport_id":"7410","iata_code":"SUS","city_iata_code":"STL","icao_code":"KSUS","country_iso2":"US","geoname_id":"4409672","latitude":"38.75","longitude":"-90.36667","airport_name":"Spirit Of St Louis","country_name":"United States","phone_number":null,"timezone":"America\/Chicago"},{"id":"3597817","gmt":"3","airport_id":"7411","iata_code":"SUT","city_iata_code":"SUT","icao_code":"HTSU","country_iso2":"TZ","geoname_id":"7730625","latitude":"-7.966667","longitude":"31.616667","airport_name":"Sumbawanga","country_name":"Tanzania","phone_number":null,"timezone":"Africa\/Dar_es_Salaam"},{"id":"3597818","gmt":"-8","airport_id":"7412","iata_code":"SUU","city_iata_code":"SUU","icao_code":"KSUU","country_iso2":"US","geoname_id":"5403310","latitude":"38.2625","longitude":"-121.92694","airport_name":"Travis AFB","country_name":"United States","phone_number":null,"timezone":"America\/Los_Angeles"},{"id":"3597819","gmt":"12","airport_id":"7413","iata_code":"SUV","city_iata_code":"SUV","icao_code":"NFNA","country_iso2":"FJ","geoname_id":"6299946","latitude":"-18.045885","longitude":"178.55981","airport_name":"Nausori","country_name":null,"phone_number":null,"timezone":"Pacific\/Fiji"},{"id":"3597820","gmt":"-6","airport_id":"7414","iata_code":"SUW","city_iata_code":"SUW","icao_code":"KSUW","country_iso2":"US","geoname_id":"6301728","latitude":"46.691113","longitude":"-92.10333","airport_name":"Richard I Bong Airport","country_name":"United States","phone_number":null,"timezone":"America\/Chicago"},{"id":"3597821","gmt":"-6","airport_id":"7415","iata_code":"SUX","city_iata_code":"SUX","icao_code":"KSUX","country_iso2":"US","geoname_id":"4876523","latitude":"42.401943","longitude":"-96.38417","airport_name":"Sioux Gateway","country_name":"United States","phone_number":null,"timezone":"America\/Chicago"},{"id":"3597822","gmt":"-9","airport_id":"7416","iata_code":"SVA","city_iata_code":"SVA","icao_code":"PASA","country_iso2":"US","geoname_id":"5873445","latitude":"63.69093","longitude":"-170.48679","airport_name":"Savoonga","country_name":"United States","phone_number":null,"timezone":"America\/Anchorage"},{"id":"3597823","gmt":"3","airport_id":"7417","iata_code":"SVB","city_iata_code":"SVB","icao_code":"FMNS","country_iso2":"MG","geoname_id":"6297050","latitude":"-14.276944","longitude":"50.175","airport_name":"Sambava","country_name":"Madagascar","phone_number":null,"timezone":"Indian\/Antananarivo"},{"id":"3597824","gmt":"-7","airport_id":"7418","iata_code":"SVC","city_iata_code":"SVC","icao_code":"KSVC","country_iso2":"US","geoname_id":"5491488","latitude":"32.631943","longitude":"-108.15389","airport_name":"Grant County","country_name":"United States","phone_number":null,"timezone":"America\/Denver"},{"id":"3597825","gmt":"-4","airport_id":"7419","iata_code":"SVD","city_iata_code":"SVD","icao_code":"TVSV","country_iso2":"VC","geoname_id":"6300911","latitude":"13.14604","longitude":"-61.21038","airport_name":"E. T. Joshua","country_name":"Saint Vincent and the Grenadines","phone_number":null,"timezone":"America\/St_Vincent"},{"id":"3597826","gmt":"-8","airport_id":"7420","iata_code":"SVE","city_iata_code":"SVE","icao_code":"KSVE","country_iso2":"US","geoname_id":"5572406","latitude":"40.416668","longitude":"-120.65","airport_name":"Susanville","country_name":"United States","phone_number":null,"timezone":"America\/Los_Angeles"},{"id":"3597827","gmt":"1","airport_id":"7421","iata_code":"SVF","city_iata_code":"SVF","icao_code":"DBBS","country_iso2":"BJ","geoname_id":"6296403","latitude":"8.033333","longitude":"2.483333","airport_name":"Save","country_name":"Benin","phone_number":null,"timezone":"Africa\/Porto-Novo"},{"id":"3597828","gmt":"1","airport_id":"7422","iata_code":"SVG","city_iata_code":"SVG","icao_code":"ENZV","country_iso2":"NO","geoname_id":"6296780","latitude":"58.88215","longitude":"5.629197","airport_name":"Sola","country_name":"Norway","phone_number":null,"timezone":"Europe\/Oslo"},{"id":"3597829","gmt":"-5","airport_id":"7423","iata_code":"SVH","city_iata_code":"SVH","icao_code":"KSVH","country_iso2":"US","geoname_id":"4493320","latitude":"35.783333","longitude":"-80.88333","airport_name":"Statesville Municipal","country_name":"United States","phone_number":null,"timezone":"America\/New_York"},{"id":"3597830","gmt":"-5","airport_id":"7424","iata_code":"SVI","city_iata_code":"SVI","icao_code":"SKSV","country_iso2":"CO","geoname_id":"7014082","latitude":"2.15","longitude":"-74.76667","airport_name":"San Vicente","country_name":"Colombia","phone_number":null,"timezone":"America\/Bogota"},{"id":"3597831","gmt":"1","airport_id":"7425","iata_code":"SVJ","city_iata_code":"SVJ","icao_code":"ENSH","country_iso2":"NO","geoname_id":"6296769","latitude":"68.24498","longitude":"14.667774","airport_name":"Helle","country_name":"Norway","phone_number":null,"timezone":"Europe\/Oslo"},{"id":"3597833","gmt":"2","airport_id":"7427","iata_code":"SVL","city_iata_code":"SVL","icao_code":"EFSA","country_iso2":"FI","geoname_id":"6296560","latitude":"61.95","longitude":"28.95","airport_name":"Savonlinna","country_name":"Finland","phone_number":null,"timezone":"Europe\/Helsinki"},{"id":"3597835","gmt":"-5","airport_id":"7429","iata_code":"SVN","city_iata_code":"SAV","icao_code":"KSVN","country_iso2":"US","geoname_id":"6301729","latitude":"32.083332","longitude":"-81.1","airport_name":"Hunter AAF","country_name":"United States","phone_number":null,"timezone":"America\/New_York"},{"id":"3597836","gmt":"3","airport_id":"7430","iata_code":"SVO","city_iata_code":"MOW","icao_code":"UUEE","country_iso2":"RU","geoname_id":"494811","latitude":"55.966324","longitude":"37.416573","airport_name":"Sheremetyevo International","country_name":"Russia","phone_number":"+7 495 232-65","timezone":"Europe\/Moscow"},{"id":"3597837","gmt":"1","airport_id":"7431","iata_code":"SVP","city_iata_code":"SVP","icao_code":"FNKU","country_iso2":"AO","geoname_id":"6297062","latitude":"-12.404167","longitude":"16.956667","airport_name":"Kuito (Silva Porto)","country_name":"Angola","phone_number":null,"timezone":"Africa\/Luanda"},{"id":"3597838","gmt":"1","airport_id":"7432","iata_code":"SVQ","city_iata_code":"SVQ","icao_code":"LEZL","country_iso2":"ES","geoname_id":"6299363","latitude":"37.423477","longitude":"-5.900136","airport_name":"San Pablo","country_name":"Spain","phone_number":null,"timezone":"Europe\/Madrid"},{"id":"3597840","gmt":"2","airport_id":"7434","iata_code":"SVT","city_iata_code":"SVT","icao_code":"FBSV","country_iso2":"BW","geoname_id":"8298732","latitude":"-18.633333","longitude":"24.083332","airport_name":"Savuti","country_name":"Botswana","phone_number":null,"timezone":"Africa\/Gaborone"},{"id":"3597841","gmt":"12","airport_id":"7435","iata_code":"SVU","city_iata_code":"SVU","icao_code":"NFNS","country_iso2":"FJ","geoname_id":"6457351","latitude":"-16.798828","longitude":"179.33913","airport_name":"Savusavu","country_name":null,"phone_number":null,"timezone":"Pacific\/Fiji"},{"id":"3597843","gmt":"-9","airport_id":"7437","iata_code":"SVW","city_iata_code":"SVW","icao_code":"PASV","country_iso2":"US","geoname_id":"5874890","latitude":"61.0975","longitude":"-155.57222","airport_name":"Sparrevohn AFS","country_name":"United States","phone_number":null,"timezone":"America\/Anchorage"},{"id":"3597844","gmt":"5","airport_id":"7438","iata_code":"SVX","city_iata_code":"SVX","icao_code":"USSS","country_iso2":"RU","geoname_id":"6301004","latitude":"56.750336","longitude":"60.804314","airport_name":"Koltsovo International","country_name":"Russia","phone_number":null,"timezone":"Asia\/Yekaterinburg"},{"id":"3597846","gmt":"-4","airport_id":"7440","iata_code":"SVZ","city_iata_code":"SVZ","icao_code":"SVSA","country_iso2":"VE","geoname_id":"6301862","latitude":"7.843056","longitude":"-72.43806","airport_name":"San Antonio","country_name":"Venezuela","phone_number":null,"timezone":"America\/Caracas"},{"id":"3597847","gmt":"8","airport_id":"7441","iata_code":"SWA","city_iata_code":"SWA","icao_code":"ZGOW","country_iso2":"CN","geoname_id":"6301364","latitude":"23.430237","longitude":"116.75859","airport_name":"Shantou","country_name":"China","phone_number":null,"timezone":"Asia\/Shanghai"},{"id":"3597849","gmt":"10","airport_id":"7443","iata_code":"SWC","city_iata_code":"SWC","icao_code":"YSWL","country_iso2":"AU","geoname_id":"7668775","latitude":"-37.066666","longitude":"142.76666","airport_name":"Stawell","country_name":"Australia","phone_number":null,"timezone":"Australia\/Melbourne"},{"id":"3597852","gmt":"-5","airport_id":"7446","iata_code":"SWF","city_iata_code":"SWF","icao_code":"KSWF","country_iso2":"US","geoname_id":"5139694","latitude":"41.49843","longitude":"-74.10104","airport_name":"Stewart","country_name":"United States","phone_number":null,"timezone":"America\/New_York"},{"id":"3597854","gmt":"10","airport_id":"7448","iata_code":"SWH","city_iata_code":"SWH","icao_code":"YSWH","country_iso2":"AU","geoname_id":"7668774","latitude":"-35.38333","longitude":"143.61667","airport_name":"Swan Hill","country_name":"Australia","phone_number":null,"timezone":"Australia\/Melbourne"},{"id":"3597855","gmt":"11","airport_id":"7449","iata_code":"SWJ","city_iata_code":"SWJ","icao_code":"NVSX","country_iso2":"VU","geoname_id":"7730720","latitude":"-16.25","longitude":"167.16667","airport_name":"South West Bay","country_name":"Vanuatu","phone_number":null,"timezone":"Pacific\/Efate"},{"id":"3597858","gmt":"-6","airport_id":"7452","iata_code":"SWO","city_iata_code":"SWO","icao_code":"KSWO","country_iso2":"US","geoname_id":"6299137","latitude":"36.15889","longitude":"-97.085556","airport_name":"Searcy Field","country_name":"United States","phone_number":null,"timezone":"America\/Chicago"},{"id":"3597860","gmt":"8","airport_id":"7454","iata_code":"SWQ","city_iata_code":"SWQ","icao_code":"WADS","country_iso2":"ID","geoname_id":"6301282","latitude":"-8.5","longitude":"117.416664","airport_name":"Brang Bidji","country_name":"Indonesia","phone_number":null,"timezone":"Asia\/Makassar"},{"id":"3597862","gmt":null,"airport_id":"7456","iata_code":"SWS","city_iata_code":"SWS","icao_code":"EGFH","country_iso2":"GB","geoname_id":"6296586","latitude":"51.63333","longitude":"-3.95","airport_name":"Fairwood Comm","country_name":"United Kingdom","phone_number":null,"timezone":"Europe\/London"},{"id":"3597863","gmt":"7","airport_id":"7457","iata_code":"SWT","city_iata_code":"SWT","icao_code":"UNSS","country_iso2":"RU","geoname_id":"1490796","latitude":"60.5","longitude":"77","airport_name":"Strzhewoi","country_name":"Russia","phone_number":null,"timezone":"Asia\/Novosibirsk"},{"id":"3597864","gmt":"9","airport_id":"7458","iata_code":"SWU","city_iata_code":"SWU","icao_code":"RKSW","country_iso2":"KR","geoname_id":"6301835","latitude":"37.283333","longitude":"127.01667","airport_name":"Suwon","country_name":"South Korea","phone_number":null,"timezone":"Asia\/Seoul"},{"id":"3597867","gmt":"2","airport_id":"7461","iata_code":"SWX","city_iata_code":"SWX","icao_code":"FBSW","country_iso2":"BW","geoname_id":"6296952","latitude":"-18.383333","longitude":"21.833332","airport_name":"Shakawe","country_name":"Botswana","phone_number":null,"timezone":"Africa\/Gaborone"},{"id":"3597868","gmt":"8","airport_id":"7462","iata_code":"SWY","city_iata_code":"SWY","icao_code":"WMBA","country_iso2":"MY","geoname_id":"6301252","latitude":"4.216667","longitude":"100.7","airport_name":"Sitiawan","country_name":"Malaysia","phone_number":null,"timezone":"Asia\/Kuala_Lumpur"},{"id":"3597870","gmt":"1","airport_id":"7464","iata_code":"SXB","city_iata_code":"SXB","icao_code":"LFST","country_iso2":"FR","geoname_id":"6299475","latitude":"48.544876","longitude":"7.627674","airport_name":"Entzheim","country_name":"France","phone_number":null,"timezone":"Europe\/Paris"},{"id":"3597872","gmt":"10","airport_id":"7466","iata_code":"SXE","city_iata_code":"SXE","icao_code":"YMES","country_iso2":"AU","geoname_id":"6301312","latitude":"-38.166668","longitude":"147","airport_name":"Sale","country_name":"Australia","phone_number":null,"timezone":"Australia\/Melbourne"},{"id":"3597873","gmt":"1","airport_id":"7467","iata_code":"SXF","city_iata_code":"BER","icao_code":"EDDB","country_iso2":"DE","geoname_id":"3208733","latitude":"52.370277","longitude":"13.521388","airport_name":"Berlin-Schoenefeld","country_name":"Germany","phone_number":null,"timezone":"Europe\/Berlin"},{"id":"3597874","gmt":"2","airport_id":"7468","iata_code":"SXG","city_iata_code":"SXG","icao_code":"FLSN","country_iso2":"ZM","geoname_id":"6297027","latitude":"-16.119444","longitude":"23.281944","airport_name":"Senanga","country_name":"Zambia","phone_number":null,"timezone":"Africa\/Lusaka"},{"id":"3597876","gmt":"3.30","airport_id":"7470","iata_code":"SXI","city_iata_code":"SXI","icao_code":"OIBS","country_iso2":"IR","geoname_id":"6300045","latitude":"25.916668","longitude":"54.533333","airport_name":"Sirri Island","country_name":"Iran","phone_number":null,"timezone":"Asia\/Tehran"},{"id":"3597877","gmt":"8","airport_id":"7471","iata_code":"SXJ","city_iata_code":"SXJ","icao_code":"ZWSS","country_iso2":"CN","geoname_id":"7730305","latitude":"42.816666","longitude":"90.23333","airport_name":"Shanshan","country_name":"China","phone_number":null,"timezone":"Asia\/Shanghai"},{"id":"3597878","gmt":"9","airport_id":"7472","iata_code":"SXK","city_iata_code":"SXK","icao_code":"WAPI","country_iso2":"ID","geoname_id":"6301201","latitude":"-7.966667","longitude":"131.31667","airport_name":"Saumlaki","country_name":"Indonesia","phone_number":null,"timezone":"Asia\/Jayapura"},{"id":"3597879","gmt":null,"airport_id":"7473","iata_code":"SXL","city_iata_code":"SXL","icao_code":"EISG","country_iso2":"IE","geoname_id":"7668221","latitude":"54.283333","longitude":"-8.466667","airport_name":"Sligo","country_name":"Ireland","phone_number":null,"timezone":"Europe\/Dublin"},{"id":"3597880","gmt":"-4","airport_id":"7474","iata_code":"SXM","city_iata_code":"SXM","icao_code":"TNCM","country_iso2":"SX","geoname_id":"3513358","latitude":"18.044722","longitude":"-63.11406","airport_name":"Princess Juliana International","country_name":"Sint Maarten","phone_number":"599-546-7542","timezone":"America\/Lower_Princes"},{"id":"3597881","gmt":"2","airport_id":"7475","iata_code":"SXN","city_iata_code":"SXN","icao_code":"FBSN","country_iso2":"BW","geoname_id":"6296950","latitude":"-20.55","longitude":"26.116667","airport_name":"Suapan","country_name":"Botswana","phone_number":null,"timezone":"Africa\/Gaborone"},{"id":"3597882","gmt":"-4","airport_id":"7476","iata_code":"SXO","city_iata_code":"SXO","icao_code":"SWFX","country_iso2":"BR","geoname_id":"7731524","latitude":"-11.6","longitude":"-50.65","airport_name":"Sao Felix Do Araguaia","country_name":"Brazil","phone_number":null,"timezone":"America\/Cuiaba"},{"id":"3597885","gmt":"5.30","airport_id":"7479","iata_code":"SXR","city_iata_code":"SXR","icao_code":"VISR","country_iso2":"IN","geoname_id":"7668609","latitude":"34.002308","longitude":"74.762634","airport_name":"Srinagar","country_name":"India","phone_number":null,"timezone":"Asia\/Kolkata"},{"id":"3597886","gmt":"8","airport_id":"7480","iata_code":"SXS","city_iata_code":"SXS","icao_code":"WBKH","country_iso2":"MY","geoname_id":"7731525","latitude":"5.089722","longitude":"119.09167","airport_name":"Sahabat 16","country_name":"Malaysia","phone_number":null,"timezone":"Asia\/Kuching"},{"id":"3597887","gmt":"8","airport_id":"7481","iata_code":"SXT","city_iata_code":"SXT","icao_code":"WMAN","country_iso2":"MY","geoname_id":"7731526","latitude":"4.330556","longitude":"102.39667","airport_name":"Taman Negara","country_name":"Malaysia","phone_number":null,"timezone":"Asia\/Kuala_Lumpur"},{"id":"3597888","gmt":"3","airport_id":"7482","iata_code":"SXU","city_iata_code":"SXU","icao_code":"HASD","country_iso2":"ET","geoname_id":"7730594","latitude":"6.836111","longitude":"37.775","airport_name":"Soddu","country_name":"Ethiopia","phone_number":null,"timezone":"Africa\/Addis_Ababa"},{"id":"3597889","gmt":"5.30","airport_id":"7483","iata_code":"SXV","city_iata_code":"SXV","icao_code":"VOSM","country_iso2":"IN","geoname_id":"7668636","latitude":"11.65","longitude":"78.166664","airport_name":"Salem","country_name":"India","phone_number":null,"timezone":"Asia\/Kolkata"},{"id":"3597891","gmt":"-3","airport_id":"7485","iata_code":"SXX","city_iata_code":"SXX","icao_code":"SNFX","country_iso2":"BR","geoname_id":"7731527","latitude":"-6.633333","longitude":"-51.983334","airport_name":"Sao Felix Do Xingu","country_name":"Brazil","phone_number":null,"timezone":"America\/Belem"},{"id":"3597893","gmt":"3","airport_id":"7487","iata_code":"SXZ","city_iata_code":"SXZ","icao_code":"LTCL","country_iso2":"TR","geoname_id":"7009657","latitude":"37.98","longitude":"41.84","airport_name":"Siirt","country_name":"Turkey","phone_number":null,"timezone":"Europe\/Istanbul"},{"id":"3597897","gmt":"10","airport_id":"7491","iata_code":"SYD","city_iata_code":"SYD","icao_code":"YSSY","country_iso2":"AU","geoname_id":"2208268","latitude":"-33.932922","longitude":"151.1799","airport_name":"Sydney Kingsford Smith Airport","country_name":"Australia","phone_number":"+61 2 9667 91","timezone":"Australia\/Sydney"},{"id":"3597898","gmt":"3","airport_id":"7492","iata_code":"SYE","city_iata_code":"SYE","icao_code":"OYSH","country_iso2":"YE","geoname_id":"6300141","latitude":"16.866667","longitude":"43.61667","airport_name":"Sadah","country_name":"Yemen","phone_number":null,"timezone":"Asia\/Aden"},{"id":"3597902","gmt":"3.30","airport_id":"7496","iata_code":"SYJ","city_iata_code":"SYJ","icao_code":"OIKY","country_iso2":"IR","geoname_id":"7519875","latitude":"29.550123","longitude":"55.664917","airport_name":"Sirjan","country_name":"Iran","phone_number":null,"timezone":"Asia\/Tehran"},{"id":"3597903","gmt":null,"airport_id":"7497","iata_code":"SYK","city_iata_code":"SYK","icao_code":"BIST","country_iso2":"IS","geoname_id":"6295713","latitude":"65.1","longitude":"-22.8","airport_name":"Stykkisholmur","country_name":"Iceland","phone_number":null,"timezone":"Atlantic\/Reykjavik"},{"id":"3597904","gmt":"-8","airport_id":"7498","iata_code":"SYL","city_iata_code":"SYL","icao_code":"KSYL","country_iso2":"US","geoname_id":"8299243","latitude":"35.75","longitude":"-120.7","airport_name":"Roberts AAF","country_name":"United States","phone_number":null,"timezone":"America\/Los_Angeles"},{"id":"3597905","gmt":"8","airport_id":"7499","iata_code":"SYM","city_iata_code":"SYM","icao_code":"ZPSM","country_iso2":"CN","geoname_id":"7731528","latitude":"22.79657","longitude":"100.96222","airport_name":"Simao","country_name":"China","phone_number":null,"timezone":"Asia\/Shanghai"},{"id":"3597907","gmt":"9","airport_id":"7501","iata_code":"SYO","city_iata_code":"SYO","icao_code":"RJSY","country_iso2":"JP","geoname_id":"6300401","latitude":"38.809444","longitude":"139.79056","airport_name":"Shonai","country_name":"Japan","phone_number":null,"timezone":"Asia\/Tokyo"},{"id":"3597908","gmt":"-5","airport_id":"7502","iata_code":"SYP","city_iata_code":"SYP","icao_code":"MPSA","country_iso2":"PA","geoname_id":"6299900","latitude":"8.1","longitude":"-80.98333","airport_name":"Santiago","country_name":"Panama","phone_number":null,"timezone":"America\/Panama"},{"id":"3597909","gmt":"-6","airport_id":"7503","iata_code":"SYQ","city_iata_code":"SYQ","icao_code":"MRPV","country_iso2":"CR","geoname_id":"6301806","latitude":"9.95","longitude":"-84.13333","airport_name":"Tobias Bola\u00f1os International","country_name":"Costa Rica","phone_number":null,"timezone":"America\/Costa_Rica"},{"id":"3597910","gmt":"-5","airport_id":"7504","iata_code":"SYR","city_iata_code":"SYR","icao_code":"KSYR","country_iso2":"US","geoname_id":"6299141","latitude":"43.113983","longitude":"-76.11223","airport_name":"Syracuse Hancock International Airport","country_name":"United States","phone_number":null,"timezone":"America\/New_York"},{"id":"3597912","gmt":"1","airport_id":"7506","iata_code":"SYT","city_iata_code":"SYT","icao_code":"LFLN","country_iso2":"FR","geoname_id":"6299403","latitude":"46.4","longitude":"4.033333","airport_name":"Charolais Bourgogne S.","country_name":"France","phone_number":null,"timezone":"Europe\/Paris"},{"id":"3597913","gmt":"10","airport_id":"7507","iata_code":"SYU","city_iata_code":"SYU","icao_code":"YWBS","country_iso2":"AU","geoname_id":"7731529","latitude":"-10.208333","longitude":"142.81667","airport_name":"Warraber Island","country_name":"Australia","phone_number":null,"timezone":"Australia\/Brisbane"},{"id":"3597915","gmt":"5","airport_id":"7509","iata_code":"SYW","city_iata_code":"SYW","icao_code":"OPSN","country_iso2":"PK","geoname_id":"7668406","latitude":"26.416668","longitude":"67.85","airport_name":"Sehwen Sharif","country_name":"Pakistan","phone_number":null,"timezone":"Asia\/Karachi"},{"id":"3597916","gmt":"8","airport_id":"7510","iata_code":"SYX","city_iata_code":"SYX","icao_code":"ZJSY","country_iso2":"CN","geoname_id":"6301369","latitude":"18.31063","longitude":"109.409706","airport_name":"Fenghuang International (Phoenix International)","country_name":"China","phone_number":null,"timezone":"Asia\/Shanghai"},{"id":"3597917","gmt":null,"airport_id":"7511","iata_code":"SYY","city_iata_code":"SYY","icao_code":"EGPO","country_iso2":"GB","geoname_id":"6296633","latitude":"58.213627","longitude":"-6.321995","airport_name":"Stornoway","country_name":"United Kingdom","phone_number":null,"timezone":"Europe\/London"}]}