{"pagination":{"offset":6000,"limit":100,"count":100,"total":6710},"data":[{"id":"3599289","gmt":"-6","airport_id":"8883","iata_code":"XMD","city_iata_code":"XMD","icao_code":"KMDS","country_iso2":"US","geoname_id":"5229527","latitude":"44","longitude":"-97.11667","airport_name":"Madison","country_name":"United States","phone_number":null,"timezone":"America\/Chicago"},{"id":"3599290","gmt":"5.45","airport_id":"8884","iata_code":"XMG","city_iata_code":"XMG","icao_code":"VNMN","country_iso2":"NP","geoname_id":"7668624","latitude":"28.966667","longitude":"80.2","airport_name":"Mahendranagar","country_name":"Nepal","phone_number":null,"timezone":"Asia\/Kathmandu"},{"id":"3599291","gmt":"-10","airport_id":"8885","iata_code":"XMH","city_iata_code":"XMH","icao_code":"NTGI","country_iso2":"PF","geoname_id":"6355147","latitude":"-14.43795","longitude":"-146.07051","airport_name":"Manihi","country_name":"French Polynesia","phone_number":null,"timezone":"Pacific\/Tahiti"},{"id":"3599292","gmt":"3","airport_id":"8886","iata_code":"XMI","city_iata_code":"XMI","icao_code":"HTMI","country_iso2":"TZ","geoname_id":"7730623","latitude":"-10.716667","longitude":"38.8","airport_name":"Masasi","country_name":"Tanzania","phone_number":null,"timezone":"Africa\/Dar_es_Salaam"},{"id":"3599293","gmt":"9.30","airport_id":"8887","iata_code":"XML","city_iata_code":"XML","icao_code":"YMIN","country_iso2":"AU","geoname_id":"7731638","latitude":"-35","longitude":"137.5","airport_name":"Minlaton","country_name":"Australia","phone_number":null,"timezone":"Australia\/Adelaide"},{"id":"3599294","gmt":"8","airport_id":"8888","iata_code":"XMN","city_iata_code":"XMN","icao_code":"ZSAM","country_iso2":"CN","geoname_id":"6301379","latitude":"24.536882","longitude":"118.1275","airport_name":"Xiamen","country_name":"China","phone_number":null,"timezone":"Asia\/Shanghai"},{"id":"3599296","gmt":"-5","airport_id":"8890","iata_code":"XMS","city_iata_code":"XMS","icao_code":"SEMC","country_iso2":"EC","geoname_id":"7730172","latitude":"-2.316667","longitude":"-78.13333","airport_name":"Macas","country_name":"Ecuador","phone_number":null,"timezone":"America\/Guayaquil"},{"id":"3599297","gmt":"10","airport_id":"8891","iata_code":"XMY","city_iata_code":"XMY","icao_code":"YYMI","country_iso2":"AU","geoname_id":"7731639","latitude":"-10.483333","longitude":"142.45","airport_name":"Yam Island","country_name":"Australia","phone_number":null,"timezone":"Australia\/Brisbane"},{"id":"3599299","gmt":"-6","airport_id":"8893","iata_code":"XNA","city_iata_code":"FYV","icao_code":"KXNA","country_iso2":"US","geoname_id":"6299294","latitude":"36.275257","longitude":"-94.29711","airport_name":"Northwest Arkansas Regional","country_name":"United States","phone_number":null,"timezone":"America\/Chicago"},{"id":"3599300","gmt":"4","airport_id":"8894","iata_code":"XNB","city_iata_code":"DXB","icao_code":"OMDB","country_iso2":"AE","geoname_id":null,"latitude":"25.2644444","longitude":"55.3116667","airport_name":"Chelsea Twr EY Bus Station","country_name":"United Arab Emirates","phone_number":" +971 4 224 5555","timezone":"Asia\/Dubai"},{"id":"3599306","gmt":"8","airport_id":"8900","iata_code":"XNN","city_iata_code":"XNN","icao_code":"ZLXN","country_iso2":"CN","geoname_id":"6301375","latitude":"36.525322","longitude":"102.03754","airport_name":"Xining","country_name":"China","phone_number":null,"timezone":"Asia\/Shanghai"},{"id":"3599309","gmt":"8","airport_id":"8903","iata_code":"XNT","city_iata_code":"XNT","icao_code":"ZBXT","country_iso2":"CN","geoname_id":"8261066","latitude":"37.1","longitude":"114.5","airport_name":"Xingtai","country_name":"China","phone_number":null,"timezone":"Asia\/Shanghai"},{"id":"3599310","gmt":null,"airport_id":"8904","iata_code":"XNU","city_iata_code":"XNU","icao_code":"DFON","country_iso2":"BF","geoname_id":"7730464","latitude":"12.733333","longitude":"-3.866667","airport_name":"Nouna","country_name":"Burkina Faso","phone_number":null,"timezone":"Africa\/Ouagadougou"},{"id":"3599333","gmt":null,"airport_id":"8927","iata_code":"XPA","city_iata_code":"XPA","icao_code":"DFEP","country_iso2":"BF","geoname_id":"7668178","latitude":"11.25","longitude":"0.7","airport_name":"Pama","country_name":"Burkina Faso","phone_number":null,"timezone":"Africa\/Ouagadougou"},{"id":"3599339","gmt":"-6","airport_id":"8933","iata_code":"XPK","city_iata_code":"XPK","icao_code":"CZFG","country_iso2":"CA","geoname_id":"7730045","latitude":"55.766666","longitude":"-101.23333","airport_name":"Pukatawagan","country_name":"Canada","phone_number":null,"timezone":"America\/Winnipeg"},{"id":"3599362","gmt":"-6","airport_id":"8956","iata_code":"XQP","city_iata_code":"XQP","icao_code":"MRQP","country_iso2":"CR","geoname_id":"7668359","latitude":"9.439146","longitude":"-84.13335","airport_name":"Quepos","country_name":"Costa Rica","phone_number":null,"timezone":"America\/Costa_Rica"},{"id":"3599379","gmt":"1","airport_id":"8973","iata_code":"XRY","city_iata_code":"XRY","icao_code":"LEJR","country_iso2":"ES","geoname_id":"6299340","latitude":"36.750614","longitude":"-6.064535","airport_name":"Jerez De La Frontera","country_name":"Spain","phone_number":null,"timezone":"Europe\/Madrid"},{"id":"3599380","gmt":"-4","airport_id":"8974","iata_code":"XSC","city_iata_code":"XSC","icao_code":"MBSC","country_iso2":"TC","geoname_id":"7668341","latitude":"21.515833","longitude":"-71.529724","airport_name":"South Caicos Airport","country_name":"Turks and Caicos Islands","phone_number":null,"timezone":"America\/Grand_Turk"},{"id":"3599381","gmt":"-8","airport_id":"8975","iata_code":"XSD","city_iata_code":"TPH","icao_code":"KTNX","country_iso2":"US","geoname_id":"5513823","latitude":"38.033333","longitude":"-117.23333","airport_name":"Test Range","country_name":"United States","phone_number":null,"timezone":"America\/Los_Angeles"},{"id":"3599382","gmt":null,"airport_id":"8976","iata_code":"XSE","city_iata_code":"XSE","icao_code":"DFES","country_iso2":"BF","geoname_id":"7730462","latitude":"13.433333","longitude":"0.533333","airport_name":"Sebba","country_name":"Burkina Faso","phone_number":null,"timezone":"Africa\/Ouagadougou"},{"id":"3599384","gmt":"-6","airport_id":"8978","iata_code":"XSI","city_iata_code":"XSI","icao_code":"CZSN","country_iso2":"CA","geoname_id":"7730048","latitude":"56.8","longitude":"-98.916664","airport_name":"South Indian Lake","country_name":"Canada","phone_number":null,"timezone":"America\/Winnipeg"},{"id":"3599387","gmt":"8","airport_id":"8981","iata_code":"XSP","city_iata_code":"SIN","icao_code":"WSSL","country_iso2":"SG","geoname_id":null,"latitude":"1.366667","longitude":"103.96667","airport_name":"Seletar","country_name":"Singapore","phone_number":null,"timezone":"Asia\/Singapore"},{"id":"3599389","gmt":"10","airport_id":"8983","iata_code":"XTG","city_iata_code":"XTG","icao_code":"YTGM","country_iso2":"AU","geoname_id":"7668777","latitude":"-27.966667","longitude":"143.76666","airport_name":"Thargomindah","country_name":"Australia","phone_number":null,"timezone":"Australia\/Brisbane"},{"id":"3599393","gmt":"-6","airport_id":"8987","iata_code":"XTL","city_iata_code":"XTL","icao_code":"CYBQ","country_iso2":"CA","geoname_id":"7668114","latitude":"58.716667","longitude":"-98.48333","airport_name":"Tadoule Lake","country_name":"Canada","phone_number":null,"timezone":"America\/Winnipeg"},{"id":"3599394","gmt":"10","airport_id":"8988","iata_code":"XTO","city_iata_code":"XTO","icao_code":"YTAM","country_iso2":"AU","geoname_id":"7731640","latitude":"-25.433332","longitude":"149.8","airport_name":"Taroom","country_name":"Australia","phone_number":null,"timezone":"Australia\/Brisbane"},{"id":"3599396","gmt":"10","airport_id":"8990","iata_code":"XTR","city_iata_code":"XTR","icao_code":"YTAA","country_iso2":"AU","geoname_id":"7731641","latitude":"-27.283333","longitude":"150.46666","airport_name":"Tara","country_name":"Australia","phone_number":null,"timezone":"Australia\/Brisbane"},{"id":"3599420","gmt":"8","airport_id":"9014","iata_code":"XUZ","city_iata_code":"XUZ","icao_code":"ZSXZ","country_iso2":"CN","geoname_id":"7731642","latitude":"34.052925","longitude":"117.55408","airport_name":"Xuzhou","country_name":"China","phone_number":null,"timezone":"Asia\/Shanghai"},{"id":"3599478","gmt":"11","airport_id":"9072","iata_code":"XYA","city_iata_code":"XYA","icao_code":"AGGY","country_iso2":"SB","geoname_id":"8260995","latitude":"-9.116667","longitude":"159.21666","airport_name":"Yandina","country_name":"Solomon Islands","phone_number":null,"timezone":"Pacific\/Guadalcanal"},{"id":"3599482","gmt":"6.30","airport_id":"9076","iata_code":"XYE","city_iata_code":"XYE","icao_code":"VYYE","country_iso2":"MM","geoname_id":"7731643","latitude":"15.25","longitude":"97.85","airport_name":"Ye","country_name":null,"phone_number":null,"timezone":"Asia\/Rangoon"},{"id":"3599501","gmt":null,"airport_id":"9095","iata_code":"XZA","city_iata_code":"XZA","icao_code":"DFEZ","country_iso2":"BF","geoname_id":"7668180","latitude":"11.133333","longitude":"-1","airport_name":"Zabre","country_name":"Burkina Faso","phone_number":null,"timezone":"Africa\/Ouagadougou"},{"id":"3599515","gmt":"-8","airport_id":"9109","iata_code":"YAA","city_iata_code":"YAA","icao_code":"CAJ4","country_iso2":"CA","geoname_id":"7730440","latitude":"52.45","longitude":"-125.3","airport_name":"Anahim Lake","country_name":"Canada","phone_number":null,"timezone":"America\/Vancouver"},{"id":"3599517","gmt":"-6","airport_id":"9111","iata_code":"YAC","city_iata_code":"YAC","icao_code":"CYAC","country_iso2":"CA","geoname_id":"7668107","latitude":"51.716667","longitude":"-91.816666","airport_name":"Cat Lake","country_name":"Canada","phone_number":null,"timezone":"America\/Winnipeg"},{"id":"3599520","gmt":"-6","airport_id":"9114","iata_code":"YAG","city_iata_code":"YAG","icao_code":"CYAG","country_iso2":"CA","geoname_id":"7668108","latitude":"48.65278","longitude":"-93.44722","airport_name":"Fort Frances Municipal","country_name":"Canada","phone_number":null,"timezone":"America\/Winnipeg"},{"id":"3599522","gmt":"-4","airport_id":"9116","iata_code":"YAI","city_iata_code":"YAI","icao_code":"SCCH","country_iso2":"CL","geoname_id":"3898416","latitude":"-36.6","longitude":"-72.11667","airport_name":"Chillan","country_name":null,"phone_number":null,"timezone":"America\/Santiago"},{"id":"3599524","gmt":"-9","airport_id":"9118","iata_code":"YAK","city_iata_code":"YAK","icao_code":"PAYA","country_iso2":"US","geoname_id":"5558616","latitude":"59.509167","longitude":"-139.65973","airport_name":"Yakutat","country_name":"United States","phone_number":null,"timezone":"America\/Yakutat"},{"id":"3599525","gmt":"-8","airport_id":"9119","iata_code":"YAL","city_iata_code":"YAL","icao_code":"CYAL","country_iso2":"CA","geoname_id":"7668109","latitude":"50.583332","longitude":"-126.916664","airport_name":"Alert Bay","country_name":"Canada","phone_number":null,"timezone":"America\/Vancouver"},{"id":"3599526","gmt":"-5","airport_id":"9120","iata_code":"YAM","city_iata_code":"YAM","icao_code":"CYAM","country_iso2":"CA","geoname_id":"6296153","latitude":"46.485302","longitude":"-84.49995","airport_name":"Sault Sainte Marie","country_name":"Canada","phone_number":null,"timezone":"America\/Toronto"},{"id":"3599527","gmt":"2","airport_id":"9121","iata_code":"YAN","city_iata_code":"YAN","icao_code":"FZIR","country_iso2":"CD","geoname_id":"7730563","latitude":"0.783333","longitude":"24.4","airport_name":"Yangambi","country_name":"Democratic Republic of the Congo","phone_number":null,"timezone":"Africa\/Lubumbashi"},{"id":"3599528","gmt":"1","airport_id":"9122","iata_code":"YAO","city_iata_code":"YAO","icao_code":"FKKY","country_iso2":"CM","geoname_id":"6297005","latitude":"3.833611","longitude":"11.523611","airport_name":"Yaounde Airport","country_name":"Cameroon","phone_number":null,"timezone":"Africa\/Douala"},{"id":"3599529","gmt":"10","airport_id":"9123","iata_code":"YAP","city_iata_code":"YAP","icao_code":"PTYA","country_iso2":"FM","geoname_id":"1558881","latitude":"9.497715","longitude":"138.08673","airport_name":"Yap International","country_name":"Micronesia","phone_number":null,"timezone":"Pacific\/Chuuk"},{"id":"3599533","gmt":"-5","airport_id":"9127","iata_code":"YAT","city_iata_code":"YAT","icao_code":"CYAT","country_iso2":"CA","geoname_id":"7668111","latitude":"52.941666","longitude":"-82.4","airport_name":"Attawapiskat","country_name":"Canada","phone_number":null,"timezone":"America\/Toronto"},{"id":"3599534","gmt":"-5","airport_id":"9128","iata_code":"YAU","city_iata_code":"YAU","icao_code":"CYAU","country_iso2":"CA","geoname_id":"7730016","latitude":"61.662777","longitude":"-73.31694","airport_name":"Kattiniq\/donaldson","country_name":"Canada","phone_number":null,"timezone":"America\/Montreal"},{"id":"3599535","gmt":"-8","airport_id":"9129","iata_code":"YAV","city_iata_code":"YAV","icao_code":"CYAV","country_iso2":"CA","geoname_id":"7730019","latitude":"48.86667","longitude":"-123.3","airport_name":"Miners Bay","country_name":"Canada","phone_number":null,"timezone":"America\/Vancouver"},{"id":"3599536","gmt":"-4","airport_id":"9130","iata_code":"YAW","city_iata_code":"YHZ","icao_code":"CYAW","country_iso2":"CA","geoname_id":"6301440","latitude":"44.86667","longitude":"-63.61667","airport_name":"Shearwater","country_name":"Canada","phone_number":null,"timezone":"America\/Halifax"},{"id":"3599537","gmt":"-6","airport_id":"9131","iata_code":"YAX","city_iata_code":"YAX","icao_code":"CKB6","country_iso2":"CA","geoname_id":"7730023","latitude":"53.251945","longitude":"-89.565","airport_name":"Angling Lake","country_name":"Canada","phone_number":null,"timezone":"America\/Winnipeg"},{"id":"3599538","gmt":"-2:30","airport_id":"9132","iata_code":"YAY","city_iata_code":"YAY","icao_code":"CYAY","country_iso2":"CA","geoname_id":"6296155","latitude":"51.36667","longitude":"-55.583332","airport_name":"St Anthony","country_name":"Canada","phone_number":null,"timezone":"America\/St_Johns"},{"id":"3599539","gmt":"-8","airport_id":"9133","iata_code":"YAZ","city_iata_code":"YAZ","icao_code":"CYAZ","country_iso2":"CA","geoname_id":"6354950","latitude":"49.076942","longitude":"-125.77639","airport_name":"Tofino Airport","country_name":"Canada","phone_number":null,"timezone":"America\/Vancouver"},{"id":"3599540","gmt":"-7","airport_id":"9134","iata_code":"YBA","city_iata_code":"YBA","icao_code":"CYBA","country_iso2":"CA","geoname_id":"8260779","latitude":"51.166668","longitude":"-115.566666","airport_name":"Banff","country_name":"Canada","phone_number":null,"timezone":"America\/Edmonton"},{"id":"3599541","gmt":"-7","airport_id":"9135","iata_code":"YBB","city_iata_code":"YBB","icao_code":"CYBB","country_iso2":"CA","geoname_id":"6301441","latitude":"68.88333","longitude":"-89.85","airport_name":"Kugaaruk","country_name":"Canada","phone_number":null,"timezone":"America\/Cambridge_Bay"},{"id":"3599542","gmt":"-5","airport_id":"9136","iata_code":"YBC","city_iata_code":"YBC","icao_code":"CYBC","country_iso2":"CA","geoname_id":"6296157","latitude":"49.2","longitude":"-68.26667","airport_name":"Baie Comeau","country_name":"Canada","phone_number":null,"timezone":"America\/Montreal"},{"id":"3599544","gmt":"-6","airport_id":"9138","iata_code":"YBE","city_iata_code":"YBE","icao_code":"CYBE","country_iso2":"CA","geoname_id":"7668112","latitude":"59.566666","longitude":"-108.48333","airport_name":"Uranium City","country_name":"Canada","phone_number":null,"timezone":"America\/Regina"},{"id":"3599546","gmt":"-5","airport_id":"9140","iata_code":"YBG","city_iata_code":"YBG","icao_code":"CYBG","country_iso2":"CA","geoname_id":"6301442","latitude":"48.322224","longitude":"-70.98861","airport_name":"Bagotville","country_name":"Canada","phone_number":null,"timezone":"America\/Montreal"},{"id":"3599550","gmt":"-6","airport_id":"9144","iata_code":"YBK","city_iata_code":"YBK","icao_code":"CYBK","country_iso2":"CA","geoname_id":"6296159","latitude":"64.3","longitude":"-96.083336","airport_name":"Baker Lake","country_name":"Canada","phone_number":null,"timezone":"America\/Rankin_Inlet"},{"id":"3599551","gmt":"-8","airport_id":"9145","iata_code":"YBL","city_iata_code":"YBL","icao_code":"CYBL","country_iso2":"CA","geoname_id":"6301443","latitude":"49.951725","longitude":"-125.26813","airport_name":"Campbell River","country_name":"Canada","phone_number":null,"timezone":"America\/Vancouver"},{"id":"3599554","gmt":"8","airport_id":"9148","iata_code":"YBP","city_iata_code":"YBP","icao_code":"ZUYB","country_iso2":"CN","geoname_id":"7910198","latitude":"28.797659","longitude":"104.54395","airport_name":"Yibin","country_name":"China","phone_number":null,"timezone":"Asia\/Shanghai"},{"id":"3599556","gmt":"-6","airport_id":"9150","iata_code":"YBR","city_iata_code":"YBR","icao_code":"CYBR","country_iso2":"CA","geoname_id":"6296161","latitude":"49.9","longitude":"-99.95","airport_name":"Brandon","country_name":"Canada","phone_number":null,"timezone":"America\/Winnipeg"},{"id":"3599558","gmt":"-6","airport_id":"9152","iata_code":"YBT","city_iata_code":"YBT","icao_code":"CYBT","country_iso2":"CA","geoname_id":"7668115","latitude":"57.88333","longitude":"-101.666664","airport_name":"Brochet","country_name":"Canada","phone_number":null,"timezone":"America\/Winnipeg"},{"id":"3599559","gmt":"-6","airport_id":"9153","iata_code":"YBV","city_iata_code":"YBV","icao_code":"CYBV","country_iso2":"CA","geoname_id":"6301444","latitude":"52.355556","longitude":"-97.01667","airport_name":"Berens River","country_name":"Canada","phone_number":null,"timezone":"America\/Winnipeg"},{"id":"3599560","gmt":"-8","airport_id":"9154","iata_code":"YBW","city_iata_code":"YBW","icao_code":"CYBW","country_iso2":"CA","geoname_id":"7910278","latitude":"48.75","longitude":"-123.23333","airport_name":"Springbank","country_name":"Canada","phone_number":null,"timezone":"America\/Vancouver"},{"id":"3599561","gmt":"-4","airport_id":"9155","iata_code":"YBX","city_iata_code":"YBX","icao_code":"CYBX","country_iso2":"CA","geoname_id":"6296164","latitude":"51.433334","longitude":"-57.216667","airport_name":"Blanc Sablon","country_name":"Canada","phone_number":null,"timezone":"America\/Blanc-Sablon"},{"id":"3599562","gmt":"-7","airport_id":"9156","iata_code":"YBY","city_iata_code":"YBY","icao_code":"CYBF","country_iso2":"CA","geoname_id":"7668113","latitude":"54.266666","longitude":"-110.73333","airport_name":"Bonnyville","country_name":"Canada","phone_number":null,"timezone":"America\/Edmonton"},{"id":"3599564","gmt":"-8","airport_id":"9158","iata_code":"YCA","city_iata_code":"YCA","icao_code":"CAH3","country_iso2":"CA","geoname_id":"5930890","latitude":"49.683334","longitude":"-124.98333","airport_name":"Courtenay","country_name":"Canada","phone_number":null,"timezone":"America\/Vancouver"},{"id":"3599565","gmt":"-7","airport_id":"9159","iata_code":"YCB","city_iata_code":"YCB","icao_code":"CYCB","country_iso2":"CA","geoname_id":"6296165","latitude":"69.1","longitude":"-105.13333","airport_name":"Cambridge Bay","country_name":"Canada","phone_number":null,"timezone":"America\/Cambridge_Bay"},{"id":"3599566","gmt":"-5","airport_id":"9160","iata_code":"YCC","city_iata_code":"YCC","icao_code":"CYCC","country_iso2":"CA","geoname_id":"7668116","latitude":"45.1","longitude":"-74.566666","airport_name":"Cornwall Regional Airport","country_name":"Canada","phone_number":null,"timezone":"America\/Toronto"},{"id":"3599567","gmt":"-8","airport_id":"9161","iata_code":"YCD","city_iata_code":"YCD","icao_code":"CYCD","country_iso2":"CA","geoname_id":"6296166","latitude":"49.05","longitude":"-123.86667","airport_name":"Nanaimo","country_name":"Canada","phone_number":null,"timezone":"America\/Vancouver"},{"id":"3599568","gmt":"-5","airport_id":"9162","iata_code":"YCE","city_iata_code":"YCE","icao_code":"CYCE","country_iso2":"CA","geoname_id":"7730024","latitude":"43.283333","longitude":"-81.48333","airport_name":"Centralia","country_name":"Canada","phone_number":null,"timezone":"America\/Toronto"},{"id":"3599570","gmt":"-8","airport_id":"9164","iata_code":"YCG","city_iata_code":"YCG","icao_code":"CYCG","country_iso2":"CA","geoname_id":"6296167","latitude":"49.295555","longitude":"-117.632225","airport_name":"Castlegar","country_name":"Canada","phone_number":null,"timezone":"America\/Vancouver"},{"id":"3599571","gmt":"-4","airport_id":"9165","iata_code":"YCH","city_iata_code":"YCH","icao_code":"CYCH","country_iso2":"CA","geoname_id":"6301446","latitude":"47.014008","longitude":"-65.44744","airport_name":"Miramichi","country_name":"Canada","phone_number":null,"timezone":"America\/Moncton"},{"id":"3599574","gmt":"-4","airport_id":"9168","iata_code":"YCL","city_iata_code":"YCL","icao_code":"CYCL","country_iso2":"CA","geoname_id":"6296168","latitude":"47.983334","longitude":"-66.333336","airport_name":"Charlo","country_name":"Canada","phone_number":null,"timezone":"America\/Moncton"},{"id":"3599575","gmt":"-5","airport_id":"9169","iata_code":"YCM","city_iata_code":"YCM","icao_code":"CYSN","country_iso2":"CA","geoname_id":"6301480","latitude":"43.2","longitude":"-79.166664","airport_name":"St Catharines","country_name":"Canada","phone_number":null,"timezone":"America\/Toronto"},{"id":"3599576","gmt":"-5","airport_id":"9170","iata_code":"YCN","city_iata_code":"YCN","icao_code":"CYCN","country_iso2":"CA","geoname_id":"7668117","latitude":"49.066666","longitude":"-81.01667","airport_name":"Cochrane","country_name":"Canada","phone_number":null,"timezone":"America\/Toronto"},{"id":"3599577","gmt":"-7","airport_id":"9171","iata_code":"YCO","city_iata_code":"YCO","icao_code":"CYCO","country_iso2":"CA","geoname_id":"6296169","latitude":"67.833336","longitude":"-115.083336","airport_name":"Kugluktuk","country_name":"Canada","phone_number":null,"timezone":"America\/Cambridge_Bay"},{"id":"3599579","gmt":"-7","airport_id":"9173","iata_code":"YCQ","city_iata_code":"YCQ","icao_code":"CYCQ","country_iso2":"CA","geoname_id":"6296170","latitude":"55.683334","longitude":"-121.63333","airport_name":"Chetwynd","country_name":"Canada","phone_number":null,"timezone":"America\/Dawson_Creek"},{"id":"3599580","gmt":"-6","airport_id":"9174","iata_code":"YCR","city_iata_code":"YCR","icao_code":"CYCR","country_iso2":"CA","geoname_id":"7730028","latitude":"54.63333","longitude":"-97.8","airport_name":"Cross Lake","country_name":"Canada","phone_number":null,"timezone":"America\/Winnipeg"},{"id":"3599581","gmt":"-6","airport_id":"9175","iata_code":"YCS","city_iata_code":"YCS","icao_code":"CYCS","country_iso2":"CA","geoname_id":"7910287","latitude":"63.333332","longitude":"-90.71667","airport_name":"Chesterfield Inlet","country_name":"Canada","phone_number":null,"timezone":"America\/Rankin_Inlet"},{"id":"3599582","gmt":"-7","airport_id":"9176","iata_code":"YCT","city_iata_code":"YCT","icao_code":"CYCT","country_iso2":"CA","geoname_id":"6301448","latitude":"52.1","longitude":"-111.416664","airport_name":"Coronation","country_name":"Canada","phone_number":null,"timezone":"America\/Edmonton"},{"id":"3599583","gmt":"8","airport_id":"9177","iata_code":"YCU","city_iata_code":"YCU","icao_code":"ZBYC","country_iso2":"CN","geoname_id":"7910157","latitude":"35.018","longitude":"110.993","airport_name":"Yun Cheng","country_name":"China","phone_number":null,"timezone":"Asia\/Shanghai"},{"id":"3599584","gmt":"-8","airport_id":"9178","iata_code":"YCW","city_iata_code":"YCW","icao_code":"CYCW","country_iso2":"CA","geoname_id":"8299024","latitude":"49.166668","longitude":"-121.9","airport_name":"Chilliwack Municipalcipal Airport","country_name":"Canada","phone_number":null,"timezone":"America\/Vancouver"},{"id":"3599586","gmt":"-5","airport_id":"9180","iata_code":"YCY","city_iata_code":"YCY","icao_code":"CYCY","country_iso2":"CA","geoname_id":"6296173","latitude":"70.416664","longitude":"-68.5","airport_name":"Clyde River","country_name":"Canada","phone_number":null,"timezone":"America\/Iqaluit"},{"id":"3599588","gmt":"-8","airport_id":"9182","iata_code":"YDA","city_iata_code":"YDA","icao_code":"CYDA","country_iso2":"CA","geoname_id":"6943713","latitude":"64.041664","longitude":"-139.12083","airport_name":"Dawson City","country_name":"Canada","phone_number":null,"timezone":"America\/Dawson"},{"id":"3599589","gmt":"-8","airport_id":"9183","iata_code":"YDB","city_iata_code":"YDB","icao_code":"CYDB","country_iso2":"CA","geoname_id":"6301450","latitude":"61.35","longitude":"-139.01666","airport_name":"Burwash Landings","country_name":"Canada","phone_number":null,"timezone":"America\/Whitehorse"},{"id":"3599591","gmt":"-2:30","airport_id":"9185","iata_code":"YDF","city_iata_code":"YDF","icao_code":"CYDF","country_iso2":"CA","geoname_id":"6296175","latitude":"49.21027","longitude":"-57.399727","airport_name":"Deer Lake","country_name":"Canada","phone_number":null,"timezone":"America\/St_Johns"},{"id":"3599592","gmt":"-4","airport_id":"9186","iata_code":"YDG","city_iata_code":"YDG","icao_code":"CYID","country_iso2":"CA","geoname_id":"6296208","latitude":"44.61667","longitude":"-65.76667","airport_name":"Digby","country_name":"Canada","phone_number":null,"timezone":"America\/Halifax"},{"id":"3599597","gmt":"-8","airport_id":"9191","iata_code":"YDL","city_iata_code":"YDL","icao_code":"CYDL","country_iso2":"CA","geoname_id":"8260801","latitude":"58.583332","longitude":"-130.03334","airport_name":"Dease Lake","country_name":"Canada","phone_number":null,"timezone":"America\/Vancouver"},{"id":"3599598","gmt":"-6","airport_id":"9192","iata_code":"YDN","city_iata_code":"YDN","icao_code":"CYDN","country_iso2":"CA","geoname_id":"6301451","latitude":"51.1","longitude":"-100.05","airport_name":"Dauphin","country_name":"Canada","phone_number":null,"timezone":"America\/Winnipeg"},{"id":"3599599","gmt":"-5","airport_id":"9193","iata_code":"YDO","city_iata_code":"YDO","icao_code":"CYDO","country_iso2":"CA","geoname_id":"7730029","latitude":"48.86667","longitude":"-72.23333","airport_name":"St Methode","country_name":"Canada","phone_number":null,"timezone":"America\/Montreal"},{"id":"3599600","gmt":"-4","airport_id":"9194","iata_code":"YDP","city_iata_code":"YDP","icao_code":"CYDP","country_iso2":"CA","geoname_id":"6943610","latitude":"56.533333","longitude":"-61.666668","airport_name":"Nain","country_name":"Canada","phone_number":null,"timezone":"America\/Goose_Bay"},{"id":"3599601","gmt":"-7","airport_id":"9195","iata_code":"YDQ","city_iata_code":"YDQ","icao_code":"CYDQ","country_iso2":"CA","geoname_id":"6296177","latitude":"55.733334","longitude":"-120.183334","airport_name":"Dawson Creek","country_name":"Canada","phone_number":null,"timezone":"America\/Dawson_Creek"},{"id":"3599604","gmt":"-8","airport_id":"9198","iata_code":"YDT","city_iata_code":"YVR","icao_code":"CZBB","country_iso2":"CA","geoname_id":"7730043","latitude":"49.183334","longitude":"-123.183334","airport_name":"Boundary Bay","country_name":"Canada","phone_number":null,"timezone":"America\/Vancouver"},{"id":"3599610","gmt":"9","airport_id":"9204","iata_code":"YEC","city_iata_code":"YEC","icao_code":"RKTY","country_iso2":"KR","geoname_id":"6300456","latitude":"36.625","longitude":"128.355","airport_name":"Yecheon","country_name":"South Korea","phone_number":null,"timezone":"Asia\/Seoul"},{"id":"3599611","gmt":"-7","airport_id":"9205","iata_code":"YED","city_iata_code":"YEA","icao_code":"CYED","country_iso2":"CA","geoname_id":"6296178","latitude":"53.5","longitude":"-113.5","airport_name":"Namao Field","country_name":"Canada","phone_number":null,"timezone":"America\/Edmonton"},{"id":"3599612","gmt":"-7","airport_id":"9206","iata_code":"YEG","city_iata_code":"YEA","icao_code":"CYEG","country_iso2":"CA","geoname_id":"6301453","latitude":"53.307377","longitude":"-113.584045","airport_name":"Edmonton International Airport","country_name":"Canada","phone_number":"780-890-8900","timezone":"America\/Edmonton"},{"id":"3599613","gmt":"3","airport_id":"9207","iata_code":"YEI","city_iata_code":"YEI","icao_code":"LTBR","country_iso2":"TR","geoname_id":"6299755","latitude":"40.233334","longitude":"29.55","airport_name":"Yenisehir","country_name":"Turkey","phone_number":null,"timezone":"Europe\/Istanbul"},{"id":"3599614","gmt":"-6","airport_id":"9208","iata_code":"YEK","city_iata_code":"YEK","icao_code":"CYEK","country_iso2":"CA","geoname_id":"6296179","latitude":"61.11667","longitude":"-94.05","airport_name":"Arviat","country_name":"Canada","phone_number":null,"timezone":"America\/Rankin_Inlet"},{"id":"3599615","gmt":"-5","airport_id":"9209","iata_code":"YEL","city_iata_code":"YEL","icao_code":"CYEL","country_iso2":"CA","geoname_id":"6296180","latitude":"46.352222","longitude":"-82.56306","airport_name":"Elliot Lake","country_name":"Canada","phone_number":null,"timezone":"America\/Toronto"},{"id":"3599616","gmt":"-5","airport_id":"9210","iata_code":"YEM","city_iata_code":"YEM","icao_code":"CYEM","country_iso2":"CA","geoname_id":"7730031","latitude":"45.842777","longitude":"-81.858055","airport_name":"East Manitoulin","country_name":"Canada","phone_number":null,"timezone":"America\/Toronto"},{"id":"3599617","gmt":"-6","airport_id":"9211","iata_code":"YEN","city_iata_code":"YEN","icao_code":"CYEN","country_iso2":"CA","geoname_id":"6296181","latitude":"49.166668","longitude":"-102.98333","airport_name":"Estevan","country_name":"Canada","phone_number":null,"timezone":"America\/Regina"},{"id":"3599618","gmt":null,"airport_id":"9212","iata_code":"YEO","city_iata_code":"YEO","icao_code":"EGDY","country_iso2":"GB","geoname_id":"6301513","latitude":"51.016666","longitude":"-2.55","airport_name":"Yeovilton","country_name":"United Kingdom","phone_number":null,"timezone":"Europe\/London"},{"id":"3599621","gmt":"-5","airport_id":"9215","iata_code":"YER","city_iata_code":"YER","icao_code":"CYER","country_iso2":"CA","geoname_id":"7668118","latitude":"56.033333","longitude":"-87.833336","airport_name":"Fort Severn","country_name":"Canada","phone_number":null,"timezone":"America\/Toronto"},{"id":"3599622","gmt":"3.30","airport_id":"9216","iata_code":"YES","city_iata_code":"YES","icao_code":"OISY","country_iso2":"IR","geoname_id":"6300075","latitude":"30.699774","longitude":"51.55276","airport_name":"Yasouj","country_name":"Iran","phone_number":null,"timezone":"Asia\/Tehran"}]}