{"pagination":{"offset":2400,"limit":100,"count":100,"total":6710},"data":[{"id":"3593720","gmt":null,"airport_id":"3314","iata_code":"IOR","city_iata_code":"IOR","icao_code":"EIIM","country_iso2":"IE","geoname_id":"7668217","latitude":"53.11667","longitude":"-9.75","airport_name":"Kilronan","country_name":"Ireland","phone_number":null,"timezone":"Europe\/Dublin"},{"id":"3593721","gmt":"-3","airport_id":"3315","iata_code":"IOS","city_iata_code":"IOS","icao_code":"SBIL","country_iso2":"BR","geoname_id":"6300633","latitude":"-14.813889","longitude":"-39.03","airport_name":"Eduardo Gomes","country_name":"Brazil","phone_number":null,"timezone":"America\/Bahia"},{"id":"3593723","gmt":"-6","airport_id":"3317","iata_code":"IOW","city_iata_code":"IOW","icao_code":"KIOW","country_iso2":"US","geoname_id":"4862048","latitude":"41.666668","longitude":"-91.53333","airport_name":"Iowa City","country_name":"United States","phone_number":null,"timezone":"America\/Chicago"},{"id":"3593724","gmt":"11","airport_id":"3318","iata_code":"IPA","city_iata_code":"IPA","icao_code":"NVVI","country_iso2":"VU","geoname_id":"8298640","latitude":"-18.75","longitude":"169.18333","airport_name":"Ipota","country_name":"Vanuatu","phone_number":null,"timezone":"Pacific\/Efate"},{"id":"3593725","gmt":"-6","airport_id":"3319","iata_code":"IPC","city_iata_code":"IPC","icao_code":"SCIP","country_iso2":"CL","geoname_id":"4030749","latitude":"-27.116667","longitude":"-109.36667","airport_name":"Mataveri International","country_name":null,"phone_number":null,"timezone":"Pacific\/Easter"},{"id":"3593727","gmt":"-4","airport_id":"3321","iata_code":"IPG","city_iata_code":"IPG","icao_code":"SWII","country_iso2":"BR","geoname_id":"7731118","latitude":"-3.216667","longitude":"-65.95","airport_name":"Ipiranga","country_name":"Brazil","phone_number":null,"timezone":"America\/Manaus"},{"id":"3593728","gmt":"8","airport_id":"3322","iata_code":"IPH","city_iata_code":"IPH","icao_code":"WMKI","country_iso2":"MY","geoname_id":"7668677","latitude":"4.566944","longitude":"101.09583","airport_name":"Sultan Azlan Shah Airport","country_name":"Malaysia","phone_number":null,"timezone":"Asia\/Kuala_Lumpur"},{"id":"3593729","gmt":"-5","airport_id":"3323","iata_code":"IPI","city_iata_code":"IPI","icao_code":"SKIP","country_iso2":"CO","geoname_id":"6301860","latitude":"0.866389","longitude":"-77.71167","airport_name":"San Luis","country_name":"Colombia","phone_number":null,"timezone":"America\/Bogota"},{"id":"3593730","gmt":"-8","airport_id":"3324","iata_code":"IPL","city_iata_code":"IPL","icao_code":"KIPL","country_iso2":"US","geoname_id":"5359068","latitude":"32.837223","longitude":"-115.57472","airport_name":"Imperial County","country_name":"United States","phone_number":null,"timezone":"America\/Los_Angeles"},{"id":"3593731","gmt":"-3","airport_id":"3325","iata_code":"IPN","city_iata_code":"IPN","icao_code":"SBIP","country_iso2":"BR","geoname_id":"7668438","latitude":"-19.5","longitude":"-42.533333","airport_name":"Usiminas","country_name":"Brazil","phone_number":null,"timezone":"America\/Sao_Paulo"},{"id":"3593733","gmt":"-5","airport_id":"3327","iata_code":"IPT","city_iata_code":"IPT","icao_code":"KIPT","country_iso2":"US","geoname_id":"5219591","latitude":"41.24222","longitude":"-76.920555","airport_name":"Lycoming County","country_name":"United States","phone_number":null,"timezone":"America\/New_York"},{"id":"3593734","gmt":"-3","airport_id":"3328","iata_code":"IPU","city_iata_code":"IPU","icao_code":"SNIU","country_iso2":"BR","geoname_id":"7731119","latitude":"-14.133333","longitude":"-39.733334","airport_name":"Ipiau","country_name":"Brazil","phone_number":null,"timezone":"America\/Bahia"},{"id":"3593736","gmt":"3","airport_id":"3330","iata_code":"IQA","city_iata_code":"IQA","icao_code":"CYFB","country_iso2":"IQ","geoname_id":"8260777","latitude":"63.75175","longitude":"-68.53658","airport_name":"Al Asad Air Base","country_name":"Iraq","phone_number":null,"timezone":"Asia\/Baghdad"},{"id":"3593737","gmt":"8","airport_id":"3331","iata_code":"IQM","city_iata_code":"IQM","icao_code":"ZWCM","country_iso2":"CN","geoname_id":"7668810","latitude":"38.13333","longitude":"85.53333","airport_name":"Qiemo","country_name":"China","phone_number":null,"timezone":"Asia\/Shanghai"},{"id":"3593738","gmt":"8","airport_id":"3332","iata_code":"IQN","city_iata_code":"IQN","icao_code":"ZLQY","country_iso2":"CN","geoname_id":"7730289","latitude":"35.8001","longitude":"107.6044","airport_name":"Qingyang","country_name":"China","phone_number":null,"timezone":"Asia\/Shanghai"},{"id":"3593739","gmt":"-4","airport_id":"3333","iata_code":"IQQ","city_iata_code":"IQQ","icao_code":"SCDA","country_iso2":"CL","geoname_id":"6300695","latitude":"-20.547937","longitude":"-70.17848","airport_name":"Cavancha","country_name":null,"phone_number":null,"timezone":"America\/Santiago"},{"id":"3593740","gmt":"-5","airport_id":"3334","iata_code":"IQT","city_iata_code":"IQT","icao_code":"SPQT","country_iso2":"PE","geoname_id":"6300816","latitude":"-3.785098","longitude":"-73.30284","airport_name":"C.F. Secada","country_name":"Peru","phone_number":null,"timezone":"America\/Lima"},{"id":"3593741","gmt":"11","airport_id":"3335","iata_code":"IRA","city_iata_code":"IRA","icao_code":"AGGK","country_iso2":"SB","geoname_id":"7668067","latitude":"-10.5","longitude":"161.83333","airport_name":"Kirakira","country_name":"Solomon Islands","phone_number":null,"timezone":"Pacific\/Guadalcanal"},{"id":"3593743","gmt":"-9","airport_id":"3337","iata_code":"IRC","city_iata_code":"IRC","icao_code":"SCIR","country_iso2":"US","geoname_id":"5859417","latitude":"65.82917","longitude":"-144.06389","airport_name":"Circle City","country_name":"United States","phone_number":null,"timezone":"America\/Anchorage"},{"id":"3593744","gmt":"6","airport_id":"3338","iata_code":"IRD","city_iata_code":"IRD","icao_code":"VGIS","country_iso2":"BD","geoname_id":"6301083","latitude":"24.133333","longitude":"89.05278","airport_name":"Ishurdi","country_name":"Bangladesh","phone_number":null,"timezone":"Asia\/Dhaka"},{"id":"3593745","gmt":"-3","airport_id":"3339","iata_code":"IRE","city_iata_code":"IRE","icao_code":"SNIC","country_iso2":"BR","geoname_id":"7731120","latitude":"-11.3","longitude":"-41.86667","airport_name":"Irece","country_name":"Brazil","phone_number":null,"timezone":"America\/Bahia"},{"id":"3593746","gmt":"10","airport_id":"3340","iata_code":"IRG","city_iata_code":"IRG","icao_code":"YLHR","country_iso2":"AU","geoname_id":"7668732","latitude":"-12.788889","longitude":"143.3125","airport_name":"Lockhart River","country_name":"Australia","phone_number":null,"timezone":"Australia\/Brisbane"},{"id":"3593747","gmt":"3","airport_id":"3341","iata_code":"IRI","city_iata_code":"IRI","icao_code":"HTIR","country_iso2":"TZ","geoname_id":"6297355","latitude":"-7.670556","longitude":"35.75028","airport_name":"Nduli","country_name":"Tanzania","phone_number":null,"timezone":"Africa\/Dar_es_Salaam"},{"id":"3593748","gmt":"-3","airport_id":"3342","iata_code":"IRJ","city_iata_code":"IRJ","icao_code":"SANL","country_iso2":"AR","geoname_id":"6300535","latitude":"-29.383333","longitude":"-66.78333","airport_name":"Capitan Vicente Almando","country_name":"Argentina","phone_number":null,"timezone":"America\/Argentina\/La_Rioja"},{"id":"3593749","gmt":"-6","airport_id":"3343","iata_code":"IRK","city_iata_code":"IRK","icao_code":"KIRK","country_iso2":"US","geoname_id":"5054475","latitude":"40.0925","longitude":"-92.54389","airport_name":"Municipal","country_name":"United States","phone_number":null,"timezone":"America\/Chicago"},{"id":"3593750","gmt":"5","airport_id":"3344","iata_code":"IRM","city_iata_code":"IRM","icao_code":"USHI","country_iso2":"RU","geoname_id":"8261022","latitude":"63.200756","longitude":"64.433945","airport_name":"Igrim","country_name":"Russia","phone_number":null,"timezone":"Asia\/Yekaterinburg"},{"id":"3593752","gmt":"1","airport_id":"3346","iata_code":"IRO","city_iata_code":"IRO","icao_code":"FEFI","country_iso2":"CF","geoname_id":"6296973","latitude":"10.186389","longitude":"22.713888","airport_name":"Birao","country_name":"Central African Republic","phone_number":null,"timezone":"Africa\/Bangui"},{"id":"3593753","gmt":"2","airport_id":"3347","iata_code":"IRP","city_iata_code":"IRP","icao_code":"FZJH","country_iso2":"CD","geoname_id":"7668271","latitude":"2.781944","longitude":"27.630833","airport_name":"Matari","country_name":"Democratic Republic of the Congo","phone_number":null,"timezone":"Africa\/Lubumbashi"},{"id":"3593758","gmt":"-4","airport_id":"3352","iata_code":"IRZ","city_iata_code":"IRZ","icao_code":"SWTP","country_iso2":"BR","geoname_id":"8260731","latitude":"-0.380296","longitude":"-64.996025","airport_name":"Tapuruquara","country_name":"Brazil","phone_number":null,"timezone":"America\/Manaus"},{"id":"3593759","gmt":"10","airport_id":"3353","iata_code":"ISA","city_iata_code":"ISA","icao_code":"YBMA","country_iso2":"AU","geoname_id":"6301298","latitude":"-20.667637","longitude":"139.49179","airport_name":"Mount Isa","country_name":"Australia","phone_number":null,"timezone":"Australia\/Brisbane"},{"id":"3593760","gmt":"5","airport_id":"3354","iata_code":"ISB","city_iata_code":"ISB","icao_code":"OPRN","country_iso2":"PK","geoname_id":"6300119","latitude":"33.609707","longitude":"73.1051","airport_name":"Islamabad International","country_name":"Pakistan","phone_number":null,"timezone":"Asia\/Karachi"},{"id":"3593761","gmt":null,"airport_id":"3355","iata_code":"ISC","city_iata_code":"ISC","icao_code":"EGHE","country_iso2":"GB","geoname_id":"6296590","latitude":"49.913334","longitude":"-6.291667","airport_name":"St Marys","country_name":"United Kingdom","phone_number":null,"timezone":"Europe\/London"},{"id":"3593763","gmt":"3","airport_id":"3357","iata_code":"ISE","city_iata_code":"ISE","icao_code":"LTFC","country_iso2":"TR","geoname_id":"6299770","latitude":"37.86611","longitude":"30.382221","airport_name":"Isparta","country_name":"Turkey","phone_number":null,"timezone":"Europe\/Istanbul"},{"id":"3593764","gmt":"9","airport_id":"3358","iata_code":"ISG","city_iata_code":"ISG","icao_code":"ROIG","country_iso2":"JP","geoname_id":"6300461","latitude":"24.336945","longitude":"124.16889","airport_name":"Ishigaki","country_name":"Japan","phone_number":null,"timezone":"Asia\/Tokyo"},{"id":"3593766","gmt":"10","airport_id":"3360","iata_code":"ISI","city_iata_code":"ISI","icao_code":"YISF","country_iso2":"AU","geoname_id":"7731121","latitude":"-24.263332","longitude":"144.42334","airport_name":"Isisford","country_name":"Australia","phone_number":null,"timezone":"Australia\/Brisbane"},{"id":"3593767","gmt":"-5","airport_id":"3361","iata_code":"ISJ","city_iata_code":"ISJ","icao_code":"MMIM","country_iso2":"MX","geoname_id":"7730665","latitude":"21.266666","longitude":"-86.75","airport_name":"Isla Mujeres","country_name":"Mexico","phone_number":null,"timezone":"America\/Cancun"},{"id":"3593768","gmt":"5.30","airport_id":"3362","iata_code":"ISK","city_iata_code":"ISK","icao_code":"VANR","country_iso2":"IN","geoname_id":"7668577","latitude":"19.966942","longitude":"73.811264","airport_name":"Gandhinagar Airport","country_name":"India","phone_number":null,"timezone":"Asia\/Kolkata"},{"id":"3593770","gmt":"-5","airport_id":"3364","iata_code":"ISM","city_iata_code":"ISM","icao_code":"KISM","country_iso2":"US","geoname_id":null,"latitude":"28.45","longitude":"-81.333336","airport_name":"Kissimmee Gateway","country_name":"United States","phone_number":null,"timezone":"America\/New_York"},{"id":"3593771","gmt":"-6","airport_id":"3365","iata_code":"ISN","city_iata_code":"ISN","icao_code":"KISN","country_iso2":"US","geoname_id":"5692947","latitude":"48.17611","longitude":"-103.63611","airport_name":"Sloulin Field International","country_name":"United States","phone_number":null,"timezone":"America\/Chicago"},{"id":"3593773","gmt":"-5","airport_id":"3367","iata_code":"ISP","city_iata_code":"ISP","icao_code":"KISP","country_iso2":"US","geoname_id":"5125130","latitude":"40.789314","longitude":"-73.09755","airport_name":"Long Island Mac Arthur","country_name":"United States","phone_number":"(631) 467-330","timezone":"America\/New_York"},{"id":"3593776","gmt":"-5","airport_id":"3370","iata_code":"ISS","city_iata_code":"ISS","icao_code":"KIWI","country_iso2":"US","geoname_id":"4983360","latitude":"44","longitude":"-69.666664","airport_name":"Wiscasset","country_name":"United States","phone_number":null,"timezone":"America\/New_York"},{"id":"3593777","gmt":"3","airport_id":"3371","iata_code":"IST","city_iata_code":"IST","icao_code":"LTFM","country_iso2":"TR","geoname_id":"11838481","latitude":"41.262222","longitude":"28.727778","airport_name":"Istanbul Airport","country_name":"Turkey","phone_number":null,"timezone":"Europe\/Istanbul"},{"id":"3593778","gmt":"3","airport_id":"3372","iata_code":"ISU","city_iata_code":"ISU","icao_code":"ORSU","country_iso2":"IQ","geoname_id":"7730143","latitude":"35.5608","longitude":"45.314716","airport_name":"Sulaimaniyah International","country_name":"Iraq","phone_number":null,"timezone":"Asia\/Baghdad"},{"id":"3593780","gmt":"-4","airport_id":"3374","iata_code":"ITA","city_iata_code":"ITA","icao_code":"SBIC","country_iso2":"BR","geoname_id":"7730155","latitude":"-3.133333","longitude":"-58.416668","airport_name":"Itacoatiara","country_name":"Brazil","phone_number":null,"timezone":"America\/Manaus"},{"id":"3593781","gmt":"-3","airport_id":"3375","iata_code":"ITB","city_iata_code":"ITB","icao_code":"SBIH","country_iso2":"BR","geoname_id":"6300632","latitude":"-4.283333","longitude":"-55.983334","airport_name":"Itaituba","country_name":"Brazil","phone_number":null,"timezone":"America\/Santarem"},{"id":"3593783","gmt":"-5","airport_id":"3377","iata_code":"ITH","city_iata_code":"ITH","icao_code":"KITH","country_iso2":"US","geoname_id":"6298471","latitude":"42.49034","longitude":"-76.46359","airport_name":"Tompkins County","country_name":"United States","phone_number":null,"timezone":"America\/New_York"},{"id":"3593784","gmt":"-3","airport_id":"3378","iata_code":"ITI","city_iata_code":"ITI","icao_code":"SNYH","country_iso2":"BR","geoname_id":"7731122","latitude":"-18","longitude":"-41.5","airport_name":"Itambacuri","country_name":"Brazil","phone_number":null,"timezone":"America\/Sao_Paulo"},{"id":"3593786","gmt":"9","airport_id":"3380","iata_code":"ITM","city_iata_code":"OSA","icao_code":"RJOO","country_iso2":"JP","geoname_id":"6300380","latitude":"34.790974","longitude":"135.44171","airport_name":"Itami","country_name":"Japan","phone_number":null,"timezone":"Asia\/Tokyo"},{"id":"3593787","gmt":"-10","airport_id":"3381","iata_code":"ITO","city_iata_code":"ITO","icao_code":"PHTO","country_iso2":"US","geoname_id":"5855944","latitude":"19.714565","longitude":"-155.03963","airport_name":"Hilo International","country_name":"United States","phone_number":null,"timezone":"Pacific\/Honolulu"},{"id":"3593789","gmt":"-3","airport_id":"3383","iata_code":"ITQ","city_iata_code":"ITQ","icao_code":"SSIQ","country_iso2":"BR","geoname_id":"7731124","latitude":"-29.133333","longitude":"-56.55","airport_name":"Itaqui","country_name":"Brazil","phone_number":null,"timezone":"America\/Sao_Paulo"},{"id":"3593790","gmt":"-3","airport_id":"3384","iata_code":"ITR","city_iata_code":"ITR","icao_code":"SBIT","country_iso2":"BR","geoname_id":"8256215","latitude":"-18.445","longitude":"-49.21417","airport_name":"Hidroeletrica","country_name":"Brazil","phone_number":null,"timezone":"America\/Sao_Paulo"},{"id":"3593792","gmt":"-11","airport_id":"3386","iata_code":"IUE","city_iata_code":"IUE","icao_code":"NIUE","country_iso2":"NU","geoname_id":"6299957","latitude":"-19.083332","longitude":"-169.93333","airport_name":"Hanan","country_name":"Niue","phone_number":null,"timezone":"Pacific\/Niue"},{"id":"3593796","gmt":"12","airport_id":"3390","iata_code":"IVC","city_iata_code":"IVC","icao_code":"NZNV","country_iso2":"NZ","geoname_id":"6205079","latitude":"-46.415432","longitude":"168.32175","airport_name":"Invercargill","country_name":"New Zealand","phone_number":null,"timezone":"Pacific\/Auckland"},{"id":"3593799","gmt":"2","airport_id":"3393","iata_code":"IVL","city_iata_code":"IVL","icao_code":"EFIV","country_iso2":"FI","geoname_id":"6296543","latitude":"68.611115","longitude":"27.415556","airport_name":"Ivalo","country_name":"Finland","phone_number":null,"timezone":"Europe\/Helsinki"},{"id":"3593801","gmt":"10","airport_id":"3395","iata_code":"IVR","city_iata_code":"IVR","icao_code":"YIVL","country_iso2":"AU","geoname_id":"7668725","latitude":"-29.883896","longitude":"151.14056","airport_name":"Inverell","country_name":"Australia","phone_number":null,"timezone":"Australia\/Sydney"},{"id":"3593802","gmt":"9.30","airport_id":"3396","iata_code":"IVW","city_iata_code":"IVW","icao_code":"YINW","country_iso2":"AU","geoname_id":"7731126","latitude":"-17.833332","longitude":"129.63333","airport_name":"Inverway","country_name":"Australia","phone_number":null,"timezone":"Australia\/Darwin"},{"id":"3593803","gmt":"3","airport_id":"3397","iata_code":"IWA","city_iata_code":"IWA","icao_code":"UUBI","country_iso2":"RU","geoname_id":"7730204","latitude":"56.942955","longitude":"40.944546","airport_name":"Ivanova","country_name":"Russia","phone_number":null,"timezone":"Europe\/Moscow"},{"id":"3593804","gmt":"-6","airport_id":"3398","iata_code":"IWD","city_iata_code":"IWD","icao_code":"KIWD","country_iso2":"US","geoname_id":"4994091","latitude":"46.525555","longitude":"-90.13167","airport_name":"Gogebic County","country_name":"United States","phone_number":null,"timezone":"America\/Menominee"},{"id":"3593805","gmt":"9","airport_id":"3399","iata_code":"IWJ","city_iata_code":"IWJ","icao_code":"RJOW","country_iso2":"JP","geoname_id":"6300385","latitude":"34.676388","longitude":"131.79028","airport_name":"Iwami","country_name":"Japan","phone_number":null,"timezone":"Asia\/Tokyo"},{"id":"3593807","gmt":"9","airport_id":"3401","iata_code":"IWO","city_iata_code":"IWO","icao_code":"RJAW","country_iso2":"JP","geoname_id":"6300315","latitude":"24.783333","longitude":"141.31667","airport_name":"Iwo Jima Airbase","country_name":"Japan","phone_number":null,"timezone":"Asia\/Tokyo"},{"id":"3593808","gmt":"-6","airport_id":"3402","iata_code":"IWS","city_iata_code":"HOU","icao_code":"KIWS","country_iso2":"US","geoname_id":"4740905","latitude":"29.816668","longitude":"-95.666664","airport_name":"West Houston","country_name":"United States","phone_number":null,"timezone":"America\/Chicago"},{"id":"3593809","gmt":"5.30","airport_id":"3403","iata_code":"IXA","city_iata_code":"IXA","icao_code":"VEAT","country_iso2":"IN","geoname_id":"6301066","latitude":"23.8926","longitude":"91.244514","airport_name":"Singerbhil","country_name":"India","phone_number":null,"timezone":"Asia\/Kolkata"},{"id":"3593810","gmt":"5.30","airport_id":"3404","iata_code":"IXB","city_iata_code":"IXB","icao_code":"VEBD","country_iso2":"IN","geoname_id":"6301067","latitude":"26.68488","longitude":"88.324814","airport_name":"Bagdogra","country_name":"India","phone_number":null,"timezone":"Asia\/Kolkata"},{"id":"3593811","gmt":"5.30","airport_id":"3405","iata_code":"IXC","city_iata_code":"IXC","icao_code":"VICG","country_iso2":"IN","geoname_id":"7668602","latitude":"30.674921","longitude":"76.797386","airport_name":"Chandigarh","country_name":"India","phone_number":null,"timezone":"Asia\/Kolkata"},{"id":"3593812","gmt":"5.30","airport_id":"3406","iata_code":"IXD","city_iata_code":"IXD","icao_code":"VIAL","country_iso2":"IN","geoname_id":"6301091","latitude":"25.439722","longitude":"81.736115","airport_name":"Bamrauli","country_name":"India","phone_number":null,"timezone":"Asia\/Kolkata"},{"id":"3593813","gmt":"5.30","airport_id":"3407","iata_code":"IXE","city_iata_code":"IXE","icao_code":"VOML","country_iso2":"IN","geoname_id":"6301126","latitude":"12.963543","longitude":"74.890144","airport_name":"Bajpe","country_name":"India","phone_number":null,"timezone":"Asia\/Kolkata"},{"id":"3593814","gmt":"5.30","airport_id":"3408","iata_code":"IXG","city_iata_code":"IXG","icao_code":"VABM","country_iso2":"IN","geoname_id":"6301035","latitude":"15.858611","longitude":"74.61833","airport_name":"Sambre","country_name":"India","phone_number":null,"timezone":"Asia\/Kolkata"},{"id":"3593815","gmt":"5.30","airport_id":"3409","iata_code":"IXH","city_iata_code":"IXH","icao_code":"VEKR","country_iso2":"IN","geoname_id":"7668591","latitude":"24.307222","longitude":"92.00889","airport_name":"Kailashahar","country_name":"India","phone_number":null,"timezone":"Asia\/Kolkata"},{"id":"3593816","gmt":"5.30","airport_id":"3410","iata_code":"IXI","city_iata_code":"IXI","icao_code":"VELR","country_iso2":"IN","geoname_id":"6301076","latitude":"27.290277","longitude":"94.08889","airport_name":"North Lakhimpur","country_name":"India","phone_number":null,"timezone":"Asia\/Kolkata"},{"id":"3593817","gmt":"5.30","airport_id":"3411","iata_code":"IXJ","city_iata_code":"IXJ","icao_code":"VIJU","country_iso2":"IN","geoname_id":"7668604","latitude":"32.68077","longitude":"74.84283","airport_name":"Satwari","country_name":"India","phone_number":null,"timezone":"Asia\/Kolkata"},{"id":"3593818","gmt":"5.30","airport_id":"3412","iata_code":"IXK","city_iata_code":"IXK","icao_code":"VAKS","country_iso2":"IN","geoname_id":"7668575","latitude":"21.319445","longitude":"70.270836","airport_name":"Keshod","country_name":"India","phone_number":null,"timezone":"Asia\/Kolkata"},{"id":"3593819","gmt":"5.30","airport_id":"3413","iata_code":"IXL","city_iata_code":"IXL","icao_code":"VILH","country_iso2":"IN","geoname_id":"7668606","latitude":"34.14035","longitude":"77.54746","airport_name":"Bakula Rimpoche","country_name":"India","phone_number":null,"timezone":"Asia\/Kolkata"},{"id":"3593820","gmt":"5.30","airport_id":"3414","iata_code":"IXM","city_iata_code":"IXM","icao_code":"VOMD","country_iso2":"IN","geoname_id":"6301125","latitude":"9.837471","longitude":"78.09112","airport_name":"Madurai","country_name":"India","phone_number":null,"timezone":"Asia\/Kolkata"},{"id":"3593821","gmt":"5.30","airport_id":"3415","iata_code":"IXN","city_iata_code":"IXN","icao_code":"VEKW","country_iso2":"IN","geoname_id":"7731127","latitude":"24.063889","longitude":"91.60333","airport_name":"Khowai","country_name":"India","phone_number":null,"timezone":"Asia\/Kolkata"},{"id":"3593822","gmt":"5.30","airport_id":"3416","iata_code":"IXP","city_iata_code":"IXP","icao_code":"VIPK","country_iso2":"IN","geoname_id":"7668607","latitude":"32.216667","longitude":"75.63333","airport_name":"Pathankot","country_name":"India","phone_number":null,"timezone":"Asia\/Kolkata"},{"id":"3593823","gmt":"5.30","airport_id":"3417","iata_code":"IXQ","city_iata_code":"IXQ","icao_code":"VEKM","country_iso2":"IN","geoname_id":"7731128","latitude":"24.1325","longitude":"91.81556","airport_name":"Kamalpur","country_name":"India","phone_number":null,"timezone":"Asia\/Kolkata"},{"id":"3593824","gmt":"5.30","airport_id":"3418","iata_code":"IXR","city_iata_code":"IXR","icao_code":"VERC","country_iso2":"IN","geoname_id":"6301080","latitude":"23.318192","longitude":"85.32285","airport_name":"Birsa Munda International","country_name":"India","phone_number":null,"timezone":"Asia\/Kolkata"},{"id":"3593825","gmt":"5.30","airport_id":"3419","iata_code":"IXS","city_iata_code":"IXS","icao_code":"VEKU","country_iso2":"IN","geoname_id":"7668592","latitude":"24.916018","longitude":"92.979256","airport_name":"Kumbhirgram","country_name":"India","phone_number":null,"timezone":"Asia\/Kolkata"},{"id":"3593826","gmt":"5.30","airport_id":"3420","iata_code":"IXT","city_iata_code":"IXT","icao_code":"VEPG","country_iso2":"IN","geoname_id":"7731129","latitude":"28.016666","longitude":"95.333336","airport_name":"Pasighat","country_name":"India","phone_number":null,"timezone":"Asia\/Kolkata"},{"id":"3593827","gmt":"5.30","airport_id":"3421","iata_code":"IXU","city_iata_code":"IXU","icao_code":"VAAU","country_iso2":"IN","geoname_id":"6301031","latitude":"19.866465","longitude":"75.39721","airport_name":"Chikkalthana","country_name":"India","phone_number":null,"timezone":"Asia\/Kolkata"},{"id":"3593828","gmt":"5.30","airport_id":"3422","iata_code":"IXV","city_iata_code":"IXV","icao_code":"VEAN","country_iso2":"IN","geoname_id":"7668586","latitude":"28.2","longitude":"94.816666","airport_name":"Along","country_name":"India","phone_number":null,"timezone":"Asia\/Kolkata"},{"id":"3593829","gmt":"5.30","airport_id":"3423","iata_code":"IXW","city_iata_code":"IXW","icao_code":"VEJS","country_iso2":"IN","geoname_id":"6301075","latitude":"22.813057","longitude":"86.16889","airport_name":"Sonari","country_name":"India","phone_number":null,"timezone":"Asia\/Kolkata"},{"id":"3593830","gmt":"5.30","airport_id":"3424","iata_code":"IXY","city_iata_code":"IXY","icao_code":"VAKE","country_iso2":"IN","geoname_id":"7668573","latitude":"23.11111","longitude":"70.104164","airport_name":"Kandla","country_name":"India","phone_number":null,"timezone":"Asia\/Kolkata"},{"id":"3593831","gmt":"5.30","airport_id":"3425","iata_code":"IXZ","city_iata_code":"IXZ","icao_code":"VOPB","country_iso2":"IN","geoname_id":"7910160","latitude":"11.650083","longitude":"92.73227","airport_name":"Port Blair","country_name":"India","phone_number":null,"timezone":"Asia\/Kolkata"},{"id":"3593832","gmt":"-8","airport_id":"3426","iata_code":"IYK","city_iata_code":"IYK","icao_code":"KIYK","country_iso2":"US","geoname_id":"5359624","latitude":"35.656666","longitude":"-117.82917","airport_name":"Kern County","country_name":"United States","phone_number":null,"timezone":"America\/Los_Angeles"},{"id":"3593833","gmt":"-3","airport_id":"3427","iata_code":"IZA","city_iata_code":"JDF","icao_code":"SDZY","country_iso2":"BR","geoname_id":"8288520","latitude":"-21.513056","longitude":"-43.173058","airport_name":"Reg. da Zona da Mata","country_name":"Brazil","phone_number":null,"timezone":"America\/Sao_Paulo"},{"id":"3593834","gmt":"9","airport_id":"3428","iata_code":"IZO","city_iata_code":"IZO","icao_code":"RJOC","country_iso2":"JP","geoname_id":"6300373","latitude":"35.41485","longitude":"132.88576","airport_name":"Izumo","country_name":"Japan","phone_number":null,"timezone":"Asia\/Tokyo"},{"id":"3593836","gmt":"4.30","airport_id":"3430","iata_code":"JAA","city_iata_code":"JAA","icao_code":"OAJL","country_iso2":"AF","geoname_id":"1453109","latitude":"34.433334","longitude":"70.46667","airport_name":"Jalalabad","country_name":"Afghanistan","phone_number":null,"timezone":"Asia\/Kabul"},{"id":"3593837","gmt":"9.30","airport_id":"3431","iata_code":"JAB","city_iata_code":"JAB","icao_code":"YJAB","country_iso2":"AU","geoname_id":"7731130","latitude":"-12.659722","longitude":"132.89194","airport_name":"Jabiru","country_name":"Australia","phone_number":null,"timezone":"Australia\/Darwin"},{"id":"3593838","gmt":"-7","airport_id":"3432","iata_code":"JAC","city_iata_code":"JAC","icao_code":"KJAC","country_iso2":"US","geoname_id":"5828662","latitude":"43.602806","longitude":"-110.73613","airport_name":"Jackson Hole","country_name":"United States","phone_number":null,"timezone":"America\/Denver"},{"id":"3593839","gmt":"8","airport_id":"3433","iata_code":"JAD","city_iata_code":"PER","icao_code":"YPJT","country_iso2":"AU","geoname_id":"6940992","latitude":"-32.083332","longitude":"115.88333","airport_name":"Jandakot","country_name":"Australia","phone_number":null,"timezone":"Australia\/Perth"},{"id":"3593841","gmt":"5.30","airport_id":"3435","iata_code":"JAF","city_iata_code":"JAF","icao_code":"VCCJ","country_iso2":"LK","geoname_id":"7730210","latitude":"9.791667","longitude":"80.075","airport_name":"Kankesanturai","country_name":"Sri Lanka","phone_number":null,"timezone":"Asia\/Colombo"},{"id":"3593842","gmt":"5","airport_id":"3436","iata_code":"JAG","city_iata_code":"JAG","icao_code":"OPJA","country_iso2":"PK","geoname_id":"6300109","latitude":"28.3","longitude":"68.45","airport_name":"Jacobabad","country_name":"Pakistan","phone_number":null,"timezone":"Asia\/Karachi"},{"id":"3593843","gmt":"5.30","airport_id":"3437","iata_code":"JAI","city_iata_code":"JAI","icao_code":"VIJP","country_iso2":"IN","geoname_id":"6301101","latitude":"26.820772","longitude":"75.80151","airport_name":"Sanganeer","country_name":"India","phone_number":null,"timezone":"Asia\/Kolkata"},{"id":"3593846","gmt":"-6","airport_id":"3440","iata_code":"JAL","city_iata_code":"JAL","icao_code":"MMJA","country_iso2":"MX","geoname_id":"6453441","latitude":"19.472221","longitude":"-96.781944","airport_name":"Jalapa","country_name":"Mexico","phone_number":null,"timezone":"America\/Mexico_City"},{"id":"3593847","gmt":"2","airport_id":"3441","iata_code":"JAM","city_iata_code":"JAM","icao_code":"LBIA","country_iso2":"BG","geoname_id":"7731131","latitude":"42.516666","longitude":"26.483334","airport_name":"Jambol","country_name":"Bulgaria","phone_number":null,"timezone":"Europe\/Sofia"},{"id":"3593848","gmt":"-6","airport_id":"3442","iata_code":"JAN","city_iata_code":"JAN","icao_code":"KJAN","country_iso2":"US","geoname_id":"4431450","latitude":"32.309895","longitude":"-90.07496","airport_name":"Jackson-evers","country_name":"United States","phone_number":null,"timezone":"America\/Chicago"},{"id":"3593855","gmt":"-5","airport_id":"3449","iata_code":"JAU","city_iata_code":"JAU","icao_code":"SPJJ","country_iso2":"PE","geoname_id":"7668470","latitude":"-11.75","longitude":"-75.25","airport_name":"Jauja","country_name":"Peru","phone_number":null,"timezone":"America\/Lima"},{"id":"3593856","gmt":"-3","airport_id":"3450","iata_code":"JAV","city_iata_code":"JAV","icao_code":"BGJN","country_iso2":"GL","geoname_id":"6295700","latitude":"69.23444","longitude":"-51.05111","airport_name":"Ilulissat","country_name":"Greenland","phone_number":null,"timezone":"America\/Godthab"},{"id":"3593857","gmt":"-5","airport_id":"3451","iata_code":"JAX","city_iata_code":"JAX","icao_code":"KJAX","country_iso2":"US","geoname_id":"4160035","latitude":"30.491657","longitude":"-81.68306","airport_name":"Jacksonville,","country_name":"United States","phone_number":"904-741-4902","timezone":"America\/New_York"}]}