{"pagination":{"offset":2800,"limit":100,"count":100,"total":6710},"data":[{"id":"3594345","gmt":"9","airport_id":"3939","iata_code":"KNG","city_iata_code":"KNG","icao_code":"WASK","country_iso2":"ID","geoname_id":"6301206","latitude":"-3.65","longitude":"133.75","airport_name":"Kaimana","country_name":"Indonesia","phone_number":null,"timezone":"Asia\/Jayapura"},{"id":"3594346","gmt":"8","airport_id":"3940","iata_code":"KNH","city_iata_code":"KNH","icao_code":"RCBS","country_iso2":"TW","geoname_id":"6300290","latitude":"24.420555","longitude":"118.344444","airport_name":"Shang-Yi","country_name":"Taiwan","phone_number":null,"timezone":"Asia\/Taipei"},{"id":"3594347","gmt":"8","airport_id":"3941","iata_code":"KNI","city_iata_code":"KNI","icao_code":"YKNG","country_iso2":"AU","geoname_id":"7731179","latitude":"-33.7","longitude":"117.55","airport_name":"Katanning","country_name":"Australia","phone_number":null,"timezone":"Australia\/Perth"},{"id":"3594348","gmt":"1","airport_id":"3942","iata_code":"KNJ","city_iata_code":"KNJ","icao_code":"FCBK","country_iso2":"CG","geoname_id":"7730497","latitude":"-3.95","longitude":"14.516667","airport_name":"Kindamba","country_name":"Republic of the Congo","phone_number":null,"timezone":"Africa\/Brazzaville"},{"id":"3594349","gmt":"-9","airport_id":"3943","iata_code":"KNK","city_iata_code":"KNK","icao_code":"PFKK","country_iso2":"US","geoname_id":"5865649","latitude":"59.433334","longitude":"-154.85","airport_name":"Kakhonak","country_name":"United States","phone_number":null,"timezone":"America\/Anchorage"},{"id":"3594350","gmt":"2","airport_id":"3944","iata_code":"KNM","city_iata_code":"KNM","icao_code":"FZTK","country_iso2":"CD","geoname_id":"7730571","latitude":"-7.516667","longitude":"24.183332","airport_name":"Kaniama","country_name":"Democratic Republic of the Congo","phone_number":null,"timezone":"Africa\/Lubumbashi"},{"id":"3594351","gmt":null,"airport_id":"3945","iata_code":"KNN","city_iata_code":"KNN","icao_code":"GUXD","country_iso2":"GN","geoname_id":"6297255","latitude":"10.3975","longitude":"-9.305556","airport_name":"Kankan","country_name":"Guinea","phone_number":null,"timezone":"Africa\/Conakry"},{"id":"3594353","gmt":"1","airport_id":"3947","iata_code":"KNP","city_iata_code":"KNP","icao_code":"FNCP","country_iso2":"AO","geoname_id":"7731180","latitude":"-9.766944","longitude":"15.450278","airport_name":"Capanda","country_name":"Angola","phone_number":null,"timezone":"Africa\/Luanda"},{"id":"3594354","gmt":"11","airport_id":"3948","iata_code":"KNQ","city_iata_code":"KNQ","icao_code":"NWWD","country_iso2":"NC","geoname_id":"7668381","latitude":"-21.053333","longitude":"164.83778","airport_name":"Kone","country_name":"New Caledonia","phone_number":null,"timezone":"Pacific\/Noumea"},{"id":"3594356","gmt":"10","airport_id":"3950","iata_code":"KNS","city_iata_code":"KNS","icao_code":"YKII","country_iso2":"AU","geoname_id":"7668729","latitude":"-39.879776","longitude":"143.88168","airport_name":"King Island","country_name":"Australia","phone_number":null,"timezone":"Australia\/Currie"},{"id":"3594357","gmt":"-6","airport_id":"3951","iata_code":"KNT","city_iata_code":"KNT","icao_code":"KTKX","country_iso2":"US","geoname_id":"4393453","latitude":"36.230556","longitude":"-90.03472","airport_name":"Municipal","country_name":"United States","phone_number":null,"timezone":"America\/Chicago"},{"id":"3594358","gmt":"5.30","airport_id":"3952","iata_code":"KNU","city_iata_code":"KNU","icao_code":"VIKA","country_iso2":"IN","geoname_id":"6301095","latitude":"26.402779","longitude":"80.4125","airport_name":"Kanpur","country_name":"India","phone_number":null,"timezone":"Asia\/Kolkata"},{"id":"3594360","gmt":"-9","airport_id":"3954","iata_code":"KNW","city_iata_code":"KNW","icao_code":"PANW","country_iso2":"US","geoname_id":"5869875","latitude":"59.45222","longitude":"-157.32973","airport_name":"New Stuyahok","country_name":"United States","phone_number":null,"timezone":"America\/Anchorage"},{"id":"3594361","gmt":"8","airport_id":"3955","iata_code":"KNX","city_iata_code":"KNX","icao_code":"YPKU","country_iso2":"AU","geoname_id":"6301333","latitude":"-15.784031","longitude":"128.71268","airport_name":"Kununurra","country_name":"Australia","phone_number":null,"timezone":"Australia\/Perth"},{"id":"3594363","gmt":null,"airport_id":"3957","iata_code":"KNZ","city_iata_code":"KNZ","icao_code":"GAKA","country_iso2":"ML","geoname_id":"8261016","latitude":"12.843333","longitude":"-11.2525","airport_name":"Kenieba","country_name":"Mali","phone_number":null,"timezone":"Africa\/Bamako"},{"id":"3594364","gmt":"-10","airport_id":"3958","iata_code":"KOA","city_iata_code":"KOA","icao_code":"PHKO","country_iso2":"US","geoname_id":"5849648","latitude":"19.736174","longitude":"-156.04108","airport_name":"Kona International Airport","country_name":"United States","phone_number":null,"timezone":"Pacific\/Honolulu"},{"id":"3594365","gmt":"11","airport_id":"3959","iata_code":"KOC","city_iata_code":"KOC","icao_code":"NWWK","country_iso2":"NC","geoname_id":"6299974","latitude":"-20.5","longitude":"164.41667","airport_name":"Koumac","country_name":"New Caledonia","phone_number":null,"timezone":"Pacific\/Noumea"},{"id":"3594367","gmt":"9","airport_id":"3961","iata_code":"KOE","city_iata_code":"KOE","icao_code":"WRKK","country_iso2":"TL","geoname_id":"6301268","latitude":"-10.168536","longitude":"123.66725","airport_name":"Eltari","country_name":"East Timor","phone_number":null,"timezone":"Asia\/Dili"},{"id":"3594371","gmt":null,"airport_id":"3965","iata_code":"KOI","city_iata_code":"KOI","icao_code":"EGPA","country_iso2":"GB","geoname_id":"6296621","latitude":"58.958057","longitude":"-2.900556","airport_name":"Orkney Island","country_name":"United Kingdom","phone_number":null,"timezone":"Europe\/London"},{"id":"3594372","gmt":"9","airport_id":"3966","iata_code":"KOJ","city_iata_code":"KOJ","icao_code":"RJFK","country_iso2":"JP","geoname_id":"6300348","latitude":"31.801224","longitude":"130.71562","airport_name":"Kagoshima","country_name":"Japan","phone_number":null,"timezone":"Asia\/Tokyo"},{"id":"3594373","gmt":"2","airport_id":"3967","iata_code":"KOK","city_iata_code":"KOK","icao_code":"EFKK","country_iso2":"FI","geoname_id":"6296549","latitude":"63.718838","longitude":"23.133068","airport_name":"Kruunupyy","country_name":"Finland","phone_number":null,"timezone":"Europe\/Helsinki"},{"id":"3594376","gmt":"2","airport_id":"3970","iata_code":"KOO","city_iata_code":"KOO","icao_code":"FZRQ","country_iso2":"CD","geoname_id":"6297158","latitude":"-5.383333","longitude":"27","airport_name":"Kongolo","country_name":"Democratic Republic of the Congo","phone_number":null,"timezone":"Africa\/Lubumbashi"},{"id":"3594377","gmt":"7","airport_id":"3971","iata_code":"KOP","city_iata_code":"KOP","icao_code":"VTUW","country_iso2":"TH","geoname_id":"1608531","latitude":"17.4","longitude":"104.75","airport_name":"Nakhon Phanom","country_name":"Thailand","phone_number":null,"timezone":"Asia\/Bangkok"},{"id":"3594380","gmt":"7","airport_id":"3974","iata_code":"KOS","city_iata_code":"KOS","icao_code":"VDSV","country_iso2":"KH","geoname_id":"7668584","latitude":"10.633333","longitude":"103.5","airport_name":"Sihanoukville","country_name":"Cambodia","phone_number":null,"timezone":"Asia\/Phnom_Penh"},{"id":"3594381","gmt":"-9","airport_id":"3975","iata_code":"KOT","city_iata_code":"KOT","icao_code":"PFKO","country_iso2":"US","geoname_id":"5866720","latitude":"63.02972","longitude":"-163.56027","airport_name":"Kotlik","country_name":"United States","phone_number":null,"timezone":"America\/Nome"},{"id":"3594382","gmt":"1","airport_id":"3976","iata_code":"KOU","city_iata_code":"KOU","icao_code":"FOGK","country_iso2":"GA","geoname_id":"7730079","latitude":"-1.116667","longitude":"12.508333","airport_name":"Koulamoutou","country_name":"Gabon","phone_number":null,"timezone":"Africa\/Libreville"},{"id":"3594383","gmt":"6","airport_id":"3977","iata_code":"KOV","city_iata_code":"KOV","icao_code":"UACK","country_iso2":"KZ","geoname_id":"7668488","latitude":"53.316666","longitude":"69.4","airport_name":"Kokshetau","country_name":"Kazakhstan","phone_number":null,"timezone":"Asia\/Almaty"},{"id":"3594384","gmt":"8","airport_id":"3978","iata_code":"KOW","city_iata_code":"KOW","icao_code":"ZSGZ","country_iso2":"CN","geoname_id":"6301382","latitude":"25.851667","longitude":"114.776665","airport_name":"Ganzhou","country_name":"China","phone_number":null,"timezone":"Asia\/Shanghai"},{"id":"3594385","gmt":"9","airport_id":"3979","iata_code":"KOX","city_iata_code":"KOX","icao_code":"WABN","country_iso2":"ID","geoname_id":"6301182","latitude":"-4.716667","longitude":"136.41667","airport_name":"Kokonao","country_name":"Indonesia","phone_number":null,"timezone":"Asia\/Jayapura"},{"id":"3594390","gmt":"-9","airport_id":"3984","iata_code":"KPC","city_iata_code":"KPC","icao_code":"PAPC","country_iso2":"US","geoname_id":"5871913","latitude":"65.25444","longitude":"-166.85583","airport_name":"Port Clarence","country_name":"United States","phone_number":null,"timezone":"America\/Anchorage"},{"id":"3594396","gmt":"8","airport_id":"3990","iata_code":"KPI","city_iata_code":"KPI","icao_code":"WBGP","country_iso2":"MY","geoname_id":"7731184","latitude":"2.010556","longitude":"112.92944","airport_name":"Kapit","country_name":"Malaysia","phone_number":null,"timezone":"Asia\/Kuching"},{"id":"3594400","gmt":"-9","airport_id":"3994","iata_code":"KPN","city_iata_code":"KPN","icao_code":"PAKI","country_iso2":"US","geoname_id":"5866392","latitude":"59.933334","longitude":"-164.05","airport_name":"Kipnuk SPB","country_name":"United States","phone_number":null,"timezone":"America\/Nome"},{"id":"3594401","gmt":"9","airport_id":"3995","iata_code":"KPO","city_iata_code":"KPO","icao_code":"RKTH","country_iso2":"KR","geoname_id":"6300449","latitude":"35.98371","longitude":"129.43375","airport_name":"Pohang","country_name":"South Korea","phone_number":null,"timezone":"Asia\/Seoul"},{"id":"3594404","gmt":"10","airport_id":"3998","iata_code":"KPS","city_iata_code":"KPS","icao_code":"YKMP","country_iso2":"AU","geoname_id":"7730261","latitude":"-31.083332","longitude":"152.76666","airport_name":"Kempsey","country_name":"Australia","phone_number":null,"timezone":"Australia\/Sydney"},{"id":"3594406","gmt":"-9","airport_id":"4000","iata_code":"KPV","city_iata_code":"KPV","icao_code":"PAPE","country_iso2":"US","geoname_id":"5871445","latitude":"55.906666","longitude":"-159.145","airport_name":"Perryville SPB","country_name":"United States","phone_number":null,"timezone":"America\/Anchorage"},{"id":"3594410","gmt":"5","airport_id":"4004","iata_code":"KQT","city_iata_code":"KQT","icao_code":"UTDT","country_iso2":"TJ","geoname_id":"7668543","latitude":"37.85961","longitude":"68.86117","airport_name":"Kurgan Tube","country_name":"Tajikistan","phone_number":null,"timezone":"Asia\/Dushanbe"},{"id":"3594411","gmt":"10","airport_id":"4005","iata_code":"KRA","city_iata_code":"KRA","icao_code":"YKER","country_iso2":"AU","geoname_id":"7668728","latitude":"-35.666668","longitude":"143.91667","airport_name":"Kerang","country_name":"Australia","phone_number":null,"timezone":"Australia\/Melbourne"},{"id":"3594412","gmt":"10","airport_id":"4006","iata_code":"KRB","city_iata_code":"KRB","icao_code":"YKMB","country_iso2":"AU","geoname_id":"7731185","latitude":"-17.456667","longitude":"140.83194","airport_name":"Karumba","country_name":"Australia","phone_number":null,"timezone":"Australia\/Brisbane"},{"id":"3594413","gmt":"7","airport_id":"4007","iata_code":"KRC","city_iata_code":"KRC","icao_code":"WIPH","country_iso2":"ID","geoname_id":"7731186","latitude":"-1.716667","longitude":"101.25","airport_name":"Kerinci","country_name":"Indonesia","phone_number":null,"timezone":"Asia\/Jakarta"},{"id":"3594415","gmt":"2","airport_id":"4009","iata_code":"KRE","city_iata_code":"KRE","icao_code":"HBBO","country_iso2":"BI","geoname_id":"8299091","latitude":"-3.333333","longitude":"29","airport_name":"Kirundo","country_name":"Burundi","phone_number":null,"timezone":"Africa\/Bujumbura"},{"id":"3594416","gmt":"1","airport_id":"4010","iata_code":"KRF","city_iata_code":"KRF","icao_code":"ESNK","country_iso2":"SE","geoname_id":"6296802","latitude":"63.049442","longitude":"17.772778","airport_name":"Kramfors","country_name":"Sweden","phone_number":null,"timezone":"Europe\/Stockholm"},{"id":"3594417","gmt":"-4","airport_id":"4011","iata_code":"KRG","city_iata_code":"KRG","icao_code":"SYKS","country_iso2":"GY","geoname_id":"7731187","latitude":"4.016667","longitude":"-59.516666","airport_name":"Karasabai","country_name":"Guyana","phone_number":null,"timezone":"America\/Guyana"},{"id":"3594418","gmt":"10","airport_id":"4012","iata_code":"KRI","city_iata_code":"KRI","icao_code":"AYKK","country_iso2":"PG","geoname_id":"7668081","latitude":"-7.483333","longitude":"144.26666","airport_name":"Kikori","country_name":"Papua New Guinea","phone_number":null,"timezone":"Pacific\/Port_Moresby"},{"id":"3594420","gmt":"1","airport_id":"4014","iata_code":"KRK","city_iata_code":"KRK","icao_code":"EPKK","country_iso2":"PL","geoname_id":"3103897","latitude":"50.075493","longitude":"19.793743","airport_name":"John Paul II Balice International","country_name":"Poland","phone_number":null,"timezone":"Europe\/Warsaw"},{"id":"3594421","gmt":"8","airport_id":"4015","iata_code":"KRL","city_iata_code":"KRL","icao_code":"ZWKL","country_iso2":"CN","geoname_id":"7730304","latitude":"41.689896","longitude":"86.12434","airport_name":"Korla","country_name":"China","phone_number":null,"timezone":"Asia\/Shanghai"},{"id":"3594422","gmt":"-4","airport_id":"4016","iata_code":"KRM","city_iata_code":"KRM","icao_code":"SYKR","country_iso2":"GY","geoname_id":"7731188","latitude":"3.75","longitude":"-59.316666","airport_name":"Karanambo","country_name":"Guyana","phone_number":null,"timezone":"America\/Guyana"},{"id":"3594423","gmt":"1","airport_id":"4017","iata_code":"KRN","city_iata_code":"KRN","icao_code":"ESNQ","country_iso2":"SE","geoname_id":"605156","latitude":"67.82222","longitude":"20.345833","airport_name":"Kiruna","country_name":"Sweden","phone_number":null,"timezone":"Europe\/Stockholm"},{"id":"3594424","gmt":"5","airport_id":"4018","iata_code":"KRO","city_iata_code":"KRO","icao_code":"USUU","country_iso2":"RU","geoname_id":"7668540","latitude":"55.433334","longitude":"65.3","airport_name":"Kurgan","country_name":"Russia","phone_number":null,"timezone":"Asia\/Yekaterinburg"},{"id":"3594425","gmt":"1","airport_id":"4019","iata_code":"KRP","city_iata_code":"KRP","icao_code":"EKKA","country_iso2":"DK","geoname_id":"2619070","latitude":"56.3","longitude":"9.116667","airport_name":"Karup","country_name":"Denmark","phone_number":null,"timezone":"Europe\/Copenhagen"},{"id":"3594426","gmt":"2","airport_id":"4020","iata_code":"KRQ","city_iata_code":"KRQ","icao_code":"UKCK","country_iso2":"UA","geoname_id":"7731189","latitude":"48.716667","longitude":"37.61667","airport_name":"Kramatorsk","country_name":"Ukraine","phone_number":null,"timezone":"Europe\/Kiev"},{"id":"3594427","gmt":"3","airport_id":"4021","iata_code":"KRR","city_iata_code":"KRR","icao_code":"URKK","country_iso2":"RU","geoname_id":"6300990","latitude":"45.034138","longitude":"39.139004","airport_name":"Pashkovsky","country_name":"Russia","phone_number":null,"timezone":"Europe\/Moscow"},{"id":"3594428","gmt":"1","airport_id":"4022","iata_code":"KRS","city_iata_code":"KRS","icao_code":"ENCN","country_iso2":"NO","geoname_id":"6296730","latitude":"58.20255","longitude":"8.073732","airport_name":"Kjevik","country_name":"Norway","phone_number":null,"timezone":"Europe\/Oslo"},{"id":"3594429","gmt":"3","airport_id":"4023","iata_code":"KRT","city_iata_code":"KRT","icao_code":"HSSS","country_iso2":"SD","geoname_id":"379252","latitude":"15.592217","longitude":"32.549698","airport_name":"Civil","country_name":"Sudan","phone_number":null,"timezone":"Africa\/Khartoum"},{"id":"3594432","gmt":"5","airport_id":"4026","iata_code":"KRW","city_iata_code":"KRW","icao_code":"UTAK","country_iso2":"TM","geoname_id":"7730199","latitude":"40.083332","longitude":"53.083332","airport_name":"Turkmanbashi","country_name":"Turkmenistan","phone_number":null,"timezone":"Asia\/Ashgabat"},{"id":"3594434","gmt":"8","airport_id":"4028","iata_code":"KRY","city_iata_code":"KRY","icao_code":"ZWKM","country_iso2":"CN","geoname_id":"7731191","latitude":"45.61667","longitude":"84.88333","airport_name":"Karamay","country_name":"China","phone_number":null,"timezone":"Asia\/Shanghai"},{"id":"3594435","gmt":"1","airport_id":"4029","iata_code":"KRZ","city_iata_code":"KRZ","icao_code":"FZBT","country_iso2":"CD","geoname_id":"7730555","latitude":"-1.483333","longitude":"19","airport_name":"Kiri","country_name":"Democratic Republic of the Congo","phone_number":null,"timezone":"Africa\/Kinshasa"},{"id":"3594436","gmt":"11","airport_id":"4030","iata_code":"KSA","city_iata_code":"KSA","icao_code":"PTSA","country_iso2":"FM","geoname_id":"2081169","latitude":"5.352478","longitude":"162.9566","airport_name":"Kosrae","country_name":"Micronesia","phone_number":null,"timezone":"Pacific\/Kosrae"},{"id":"3594438","gmt":"1","airport_id":"4032","iata_code":"KSC","city_iata_code":"KSC","icao_code":"LZKZ","country_iso2":"SK","geoname_id":"6301800","latitude":"48.666668","longitude":"21.25","airport_name":"Barca","country_name":"Slovakia","phone_number":null,"timezone":"Europe\/Bratislava"},{"id":"3594439","gmt":"1","airport_id":"4033","iata_code":"KSD","city_iata_code":"KSD","icao_code":"ESOK","country_iso2":"SE","geoname_id":"6296810","latitude":"59.360283","longitude":"13.472059","airport_name":"Karlstad","country_name":"Sweden","phone_number":null,"timezone":"Europe\/Stockholm"},{"id":"3594440","gmt":"3","airport_id":"4034","iata_code":"KSE","city_iata_code":"KSE","icao_code":"HUKS","country_iso2":"UG","geoname_id":"6297379","latitude":"0.185556","longitude":"30.100834","airport_name":"Kasese","country_name":"Uganda","phone_number":null,"timezone":"Africa\/Kampala"},{"id":"3594441","gmt":"1","airport_id":"4035","iata_code":"KSF","city_iata_code":"KSF","icao_code":"EDVK","country_iso2":"DE","geoname_id":"6296531","latitude":"51.415855","longitude":"9.380858","airport_name":"Kassel-Calden","country_name":"Germany","phone_number":null,"timezone":"Europe\/Berlin"},{"id":"3594442","gmt":"3.30","airport_id":"4036","iata_code":"KSH","city_iata_code":"KSH","icao_code":"OICC","country_iso2":"IR","geoname_id":"6300046","latitude":"34.355915","longitude":"47.145126","airport_name":"Kermanshah","country_name":"Iran","phone_number":null,"timezone":"Asia\/Tehran"},{"id":"3594443","gmt":null,"airport_id":"4037","iata_code":"KSI","city_iata_code":"KSI","icao_code":"GUKU","country_iso2":"GN","geoname_id":"6297249","latitude":"9.183333","longitude":"-10.1","airport_name":"Kissidougou","country_name":"Guinea","phone_number":null,"timezone":"Africa\/Conakry"},{"id":"3594444","gmt":"2","airport_id":"4038","iata_code":"KSJ","city_iata_code":"KSJ","icao_code":"LGKS","country_iso2":"GR","geoname_id":"7668313","latitude":"35.42139","longitude":"26.916668","airport_name":"Kasos Island","country_name":"Greece","phone_number":null,"timezone":"Europe\/Athens"},{"id":"3594446","gmt":"3","airport_id":"4040","iata_code":"KSL","city_iata_code":"KSL","icao_code":"HSKA","country_iso2":"SD","geoname_id":"6297341","latitude":"15.390278","longitude":"36.34222","airport_name":"Kassala","country_name":"Sudan","phone_number":null,"timezone":"Africa\/Khartoum"},{"id":"3594447","gmt":"-9","airport_id":"4041","iata_code":"KSM","city_iata_code":"KSM","icao_code":"PASM","country_iso2":"US","geoname_id":"5873197","latitude":"62.058666","longitude":"-163.29489","airport_name":"Saint Marys","country_name":"United States","phone_number":null,"timezone":"America\/Anchorage"},{"id":"3594448","gmt":"6","airport_id":"4042","iata_code":"KSN","city_iata_code":"KSN","icao_code":"UAUU","country_iso2":"KZ","geoname_id":"6300923","latitude":"53.2","longitude":"63.55","airport_name":"Kostanay","country_name":"Kazakhstan","phone_number":null,"timezone":"Asia\/Almaty"},{"id":"3594449","gmt":"2","airport_id":"4043","iata_code":"KSO","city_iata_code":"KSO","icao_code":"LGKA","country_iso2":"GR","geoname_id":"6299489","latitude":"40.450832","longitude":"21.273333","airport_name":"Aristoteles Airport","country_name":"Greece","phone_number":null,"timezone":"Europe\/Athens"},{"id":"3594451","gmt":"5","airport_id":"4045","iata_code":"KSQ","city_iata_code":"KSQ","icao_code":"UTSL","country_iso2":"UZ","geoname_id":"7731192","latitude":"38.80981","longitude":"65.77531","airport_name":"Karshi","country_name":"Uzbekistan","phone_number":null,"timezone":"Asia\/Samarkand"},{"id":"3594453","gmt":null,"airport_id":"4047","iata_code":"KSS","city_iata_code":"KSS","icao_code":"GASK","country_iso2":"ML","geoname_id":"6297180","latitude":"11.3","longitude":"-5.583333","airport_name":"Sikasso","country_name":"Mali","phone_number":null,"timezone":"Africa\/Bamako"},{"id":"3594454","gmt":"3","airport_id":"4048","iata_code":"KST","city_iata_code":"KST","icao_code":"HSKI","country_iso2":"SD","geoname_id":"6297342","latitude":"13.133333","longitude":"32.716667","airport_name":"Kosti","country_name":"Sudan","phone_number":null,"timezone":"Africa\/Khartoum"},{"id":"3594455","gmt":"1","airport_id":"4049","iata_code":"KSU","city_iata_code":"KRS","icao_code":"ENKB","country_iso2":"NO","geoname_id":"6296748","latitude":"63.114723","longitude":"7.844444","airport_name":"Kvernberget","country_name":"Norway","phone_number":null,"timezone":"Europe\/Oslo"},{"id":"3594456","gmt":"10","airport_id":"4050","iata_code":"KSV","city_iata_code":"KSV","icao_code":"YSPV","country_iso2":"AU","geoname_id":"7731193","latitude":"-23.55","longitude":"140.68333","airport_name":"Springvale","country_name":"Australia","phone_number":null,"timezone":"Australia\/Brisbane"},{"id":"3594457","gmt":"2","airport_id":"4051","iata_code":"KSW","city_iata_code":"KSW","icao_code":"LLKS","country_iso2":"IL","geoname_id":"7730638","latitude":"33.216667","longitude":"35.566666","airport_name":"Kiryat Shmona","country_name":"Israel","phone_number":null,"timezone":"Asia\/Jerusalem"},{"id":"3594459","gmt":"3","airport_id":"4053","iata_code":"KSY","city_iata_code":"KSY","icao_code":"LTCF","country_iso2":"TR","geoname_id":"6299764","latitude":"40.551666","longitude":"43.085835","airport_name":"Kars","country_name":"Turkey","phone_number":null,"timezone":"Europe\/Istanbul"},{"id":"3594460","gmt":"3","airport_id":"4054","iata_code":"KSZ","city_iata_code":"KSZ","icao_code":"ULKK","country_iso2":"RU","geoname_id":"7668516","latitude":"61.233334","longitude":"46.7","airport_name":"Kotlas","country_name":"Russia","phone_number":null,"timezone":"Europe\/Moscow"},{"id":"3594461","gmt":"8","airport_id":"4055","iata_code":"KTA","city_iata_code":"KTA","icao_code":"YPKA","country_iso2":"AU","geoname_id":"7668758","latitude":"-20.70826","longitude":"116.77006","airport_name":"Karratha","country_name":"Australia","phone_number":null,"timezone":"Australia\/Perth"},{"id":"3594464","gmt":"9","airport_id":"4058","iata_code":"KTD","city_iata_code":"KTD","icao_code":"RORK","country_iso2":"JP","geoname_id":"6301843","latitude":"25.95","longitude":"131.3","airport_name":"Kitadaito","country_name":"Japan","phone_number":null,"timezone":"Asia\/Tokyo"},{"id":"3594465","gmt":"8","airport_id":"4059","iata_code":"KTE","city_iata_code":"KTE","icao_code":"WMKE","country_iso2":"MY","geoname_id":"7632451","latitude":"4.538333","longitude":"103.42833","airport_name":"Kerteh","country_name":"Malaysia","phone_number":null,"timezone":"Asia\/Kuala_Lumpur"},{"id":"3594466","gmt":"12","airport_id":"4060","iata_code":"KTF","city_iata_code":"KTF","icao_code":"NZTK","country_iso2":"NZ","geoname_id":"7730734","latitude":"-40.85","longitude":"172.8","airport_name":"Takaka","country_name":"New Zealand","phone_number":null,"timezone":"Pacific\/Auckland"},{"id":"3594467","gmt":"7","airport_id":"4061","iata_code":"KTG","city_iata_code":"KTG","icao_code":"WIOK","country_iso2":"ID","geoname_id":"6301240","latitude":"-1.833333","longitude":"109.98333","airport_name":"Ketapang","country_name":"Indonesia","phone_number":null,"timezone":"Asia\/Pontianak"},{"id":"3594469","gmt":"7","airport_id":"4063","iata_code":"KTI","city_iata_code":"KTI","icao_code":"VDKT","country_iso2":"KH","geoname_id":"7731194","latitude":"12.5","longitude":"106.05","airport_name":"Kratie","country_name":"Cambodia","phone_number":null,"timezone":"Asia\/Phnom_Penh"},{"id":"3594470","gmt":"3","airport_id":"4064","iata_code":"KTL","city_iata_code":"KTL","icao_code":"HKKT","country_iso2":"KE","geoname_id":"6297312","latitude":"0.974111","longitude":"34.959248","airport_name":"Kitale","country_name":"Kenya","phone_number":null,"timezone":"Africa\/Nairobi"},{"id":"3594471","gmt":"5.45","airport_id":"4065","iata_code":"KTM","city_iata_code":"KTM","icao_code":"VNKT","country_iso2":"NP","geoname_id":"1283240","latitude":"27.699905","longitude":"85.35657","airport_name":"Tribhuvan International","country_name":"Nepal","phone_number":null,"timezone":"Asia\/Kathmandu"},{"id":"3594472","gmt":"-9","airport_id":"4066","iata_code":"KTN","city_iata_code":"KTN","icao_code":"PAKT","country_iso2":"US","geoname_id":"5554438","latitude":"55.35655","longitude":"-131.7087","airport_name":"Ketchikan International Airport","country_name":"United States","phone_number":null,"timezone":"America\/Sitka"},{"id":"3594473","gmt":"-4","airport_id":"4067","iata_code":"KTO","city_iata_code":"KTO","icao_code":"SYKT","country_iso2":"GY","geoname_id":"7731195","latitude":"4.65","longitude":"-59.816666","airport_name":"Kato","country_name":"Guyana","phone_number":null,"timezone":"America\/Guyana"},{"id":"3594475","gmt":"2","airport_id":"4069","iata_code":"KTQ","city_iata_code":"KTQ","icao_code":"EFIT","country_iso2":"FI","geoname_id":"7730068","latitude":"62.165833","longitude":"30.076668","airport_name":"Kitee","country_name":"Finland","phone_number":null,"timezone":"Europe\/Helsinki"},{"id":"3594476","gmt":"9.30","airport_id":"4070","iata_code":"KTR","city_iata_code":"KTR","icao_code":"YPTN","country_iso2":"AU","geoname_id":"6301338","latitude":"-14.4575","longitude":"132.2714","airport_name":"Tindal","country_name":"Australia","phone_number":null,"timezone":"Australia\/Darwin"},{"id":"3594477","gmt":"-9","airport_id":"4071","iata_code":"KTS","city_iata_code":"KTS","icao_code":"PFKT","country_iso2":"US","geoname_id":"5858026","latitude":"65.329445","longitude":"-166.47166","airport_name":"Brevig Mission","country_name":"United States","phone_number":null,"timezone":"America\/Anchorage"},{"id":"3594478","gmt":"2","airport_id":"4072","iata_code":"KTT","city_iata_code":"KTT","icao_code":"EFKT","country_iso2":"FI","geoname_id":"6296551","latitude":"67.695946","longitude":"24.859028","airport_name":"Kittila","country_name":"Finland","phone_number":null,"timezone":"Europe\/Helsinki"},{"id":"3594479","gmt":"5.30","airport_id":"4073","iata_code":"KTU","city_iata_code":"KTU","icao_code":"VIKO","country_iso2":"IN","geoname_id":"6301102","latitude":"25","longitude":"76.5","airport_name":"Kota","country_name":"India","phone_number":null,"timezone":"Asia\/Kolkata"},{"id":"3594481","gmt":"1","airport_id":"4075","iata_code":"KTW","city_iata_code":"KTW","icao_code":"EPKT","country_iso2":"PL","geoname_id":"6296782","latitude":"50.470833","longitude":"19.07403","airport_name":"Pyrzowice","country_name":"Poland","phone_number":null,"timezone":"Europe\/Warsaw"},{"id":"3594482","gmt":null,"airport_id":"4076","iata_code":"KTX","city_iata_code":"KTX","icao_code":"GAKO","country_iso2":"ML","geoname_id":"6297172","latitude":"12.416667","longitude":"-5.383333","airport_name":"Koutiala","country_name":"Mali","phone_number":null,"timezone":"Africa\/Bamako"},{"id":"3594484","gmt":"8","airport_id":"4078","iata_code":"KUA","city_iata_code":"KUA","icao_code":"WMKD","country_iso2":"MY","geoname_id":"6301254","latitude":"3.780765","longitude":"103.21518","airport_name":"Kuantan","country_name":"Malaysia","phone_number":null,"timezone":"Asia\/Kuala_Lumpur"},{"id":"3594486","gmt":"8","airport_id":"4080","iata_code":"KUD","city_iata_code":"KUD","icao_code":"WBKT","country_iso2":"MY","geoname_id":"6301214","latitude":"6.925","longitude":"116.83417","airport_name":"Kudat","country_name":"Malaysia","phone_number":null,"timezone":"Asia\/Kuching"},{"id":"3594488","gmt":"4","airport_id":"4082","iata_code":"KUF","city_iata_code":"KUF","icao_code":"UWWW","country_iso2":"RU","geoname_id":"6301028","latitude":"53.50782","longitude":"50.14742","airport_name":"Kurumoch","country_name":"Russia","phone_number":null,"timezone":"Europe\/Samara"},{"id":"3594489","gmt":"10","airport_id":"4083","iata_code":"KUG","city_iata_code":"KUG","icao_code":"YKUB","country_iso2":"AU","geoname_id":"7731197","latitude":"-10.233333","longitude":"142.3","airport_name":"Kubin Island","country_name":"Australia","phone_number":null,"timezone":"Australia\/Brisbane"},{"id":"3594490","gmt":"9","airport_id":"4084","iata_code":"KUH","city_iata_code":"KUH","icao_code":"RJCK","country_iso2":"JP","geoname_id":"6300324","latitude":"43.04565","longitude":"144.19682","airport_name":"Kushiro","country_name":"Japan","phone_number":null,"timezone":"Asia\/Tokyo"},{"id":"3594493","gmt":"-9","airport_id":"4087","iata_code":"KUK","city_iata_code":"KUK","icao_code":"PFKA","country_iso2":"US","geoname_id":"5865892","latitude":"60.876087","longitude":"-162.52124","airport_name":"Kasigluk","country_name":"United States","phone_number":null,"timezone":"America\/Nome"},{"id":"3594494","gmt":"8","airport_id":"4088","iata_code":"KUL","city_iata_code":"KUL","icao_code":"WMKK","country_iso2":"MY","geoname_id":"6301255","latitude":"2.755672","longitude":"101.70539","airport_name":"Kuala Lumpur International Airport (klia)","country_name":"Malaysia","phone_number":"+603-8776 200","timezone":"Asia\/Kuala_Lumpur"}]}