{"pagination":{"offset":3600,"limit":100,"count":100,"total":6710},"data":[{"id":"3595476","gmt":"-4","airport_id":"5070","iata_code":"MRD","city_iata_code":"MRD","icao_code":"SVMD","country_iso2":"VE","geoname_id":"3649499","latitude":"8.583333","longitude":"-71.157776","airport_name":"A Carnevalli","country_name":"Venezuela","phone_number":null,"timezone":"America\/Caracas"},{"id":"3595478","gmt":"-6","airport_id":"5072","iata_code":"MRF","city_iata_code":"MRF","icao_code":"KMRF","country_iso2":"US","geoname_id":"5525778","latitude":"30.3","longitude":"-104.01667","airport_name":"Municipal","country_name":"United States","phone_number":null,"timezone":"America\/Chicago"},{"id":"3595479","gmt":"10","airport_id":"5073","iata_code":"MRG","city_iata_code":"MRG","icao_code":"YMBA","country_iso2":"AU","geoname_id":"7668738","latitude":"-17","longitude":"145.46666","airport_name":"Mareeba","country_name":"Australia","phone_number":null,"timezone":"Australia\/Brisbane"},{"id":"3595482","gmt":"-5","airport_id":"5076","iata_code":"MRK","city_iata_code":"MRK","icao_code":"KMKY","country_iso2":"US","geoname_id":"4163389","latitude":"25.944445","longitude":"-81.72389","airport_name":"Marco Island","country_name":"United States","phone_number":null,"timezone":"America\/New_York"},{"id":"3595485","gmt":"-5","airport_id":"5079","iata_code":"MRN","city_iata_code":"MRN","icao_code":"KMRN","country_iso2":"US","geoname_id":"4480227","latitude":"35.75","longitude":"-81.683334","airport_name":"Lenoir","country_name":"United States","phone_number":null,"timezone":"America\/New_York"},{"id":"3595486","gmt":"12","airport_id":"5080","iata_code":"MRO","city_iata_code":"MRO","icao_code":"NZMS","country_iso2":"NZ","geoname_id":"6241111","latitude":"-40.975","longitude":"175.63333","airport_name":"Masterton\/Hood Aerodrome","country_name":"New Zealand","phone_number":null,"timezone":"Pacific\/Auckland"},{"id":"3595487","gmt":"9.30","airport_id":"5081","iata_code":"MRP","city_iata_code":"MRP","icao_code":"YALA","country_iso2":"AU","geoname_id":"7731293","latitude":"-27","longitude":"135","airport_name":"Marla","country_name":"Australia","phone_number":null,"timezone":"Australia\/Adelaide"},{"id":"3595488","gmt":"8","airport_id":"5082","iata_code":"MRQ","city_iata_code":"MRQ","icao_code":"RPUW","country_iso2":"PH","geoname_id":"1700904","latitude":"13.363056","longitude":"121.82361","airport_name":"Marinduque","country_name":"Philippines","phone_number":null,"timezone":"Asia\/Manila"},{"id":"3595489","gmt":"-5","airport_id":"5083","iata_code":"MRR","city_iata_code":"MRR","icao_code":"SEMA","country_iso2":"EC","geoname_id":"3655440","latitude":"-4.383333","longitude":"-79.933334","airport_name":"Macara","country_name":"Ecuador","phone_number":null,"timezone":"America\/Guayaquil"},{"id":"3595490","gmt":"1","airport_id":"5084","iata_code":"MRS","city_iata_code":"MRS","icao_code":"LFML","country_iso2":"FR","geoname_id":"6299417","latitude":"43.44178","longitude":"5.222137","airport_name":"Marseille Provence Airport","country_name":"France","phone_number":null,"timezone":"Europe\/Paris"},{"id":"3595492","gmt":"4","airport_id":"5086","iata_code":"MRU","city_iata_code":"MRU","icao_code":"FIMP","country_iso2":"MU","geoname_id":"1106588","latitude":"-20.431997","longitude":"57.67663","airport_name":"Sir Seewoosagur Ramgoolam International","country_name":"Mauritius","phone_number":"230-603-6000","timezone":"Indian\/Mauritius"},{"id":"3595493","gmt":"3","airport_id":"5087","iata_code":"MRV","city_iata_code":"MRV","icao_code":"URMM","country_iso2":"RU","geoname_id":"6300991","latitude":"44.218105","longitude":"43.085815","airport_name":"Mineralnye Vodyj","country_name":"Russia","phone_number":null,"timezone":"Europe\/Moscow"},{"id":"3595495","gmt":"3.30","airport_id":"5089","iata_code":"MRX","city_iata_code":"MRX","icao_code":"OIAM","country_iso2":"IR","geoname_id":"6300039","latitude":"30.535557","longitude":"49.16722","airport_name":"Mahshahr","country_name":"Iran","phone_number":null,"timezone":"Asia\/Tehran"},{"id":"3595496","gmt":"-8","airport_id":"5090","iata_code":"MRY","city_iata_code":"MRY","icao_code":"KMRY","country_iso2":"US","geoname_id":"5374415","latitude":"36.587296","longitude":"-121.850815","airport_name":"Monterey Peninsula","country_name":"United States","phone_number":null,"timezone":"America\/Los_Angeles"},{"id":"3595497","gmt":"10","airport_id":"5091","iata_code":"MRZ","city_iata_code":"MRZ","icao_code":"YMOR","country_iso2":"AU","geoname_id":"7668743","latitude":"-29.496346","longitude":"149.85019","airport_name":"Moree","country_name":"Australia","phone_number":null,"timezone":"Australia\/Sydney"},{"id":"3595498","gmt":"-6","airport_id":"5092","iata_code":"MSA","city_iata_code":"MSA","icao_code":"CZMD","country_iso2":"CA","geoname_id":"7668162","latitude":"53.816666","longitude":"-91.98333","airport_name":"Muskrat Dam","country_name":"Canada","phone_number":null,"timezone":"America\/Winnipeg"},{"id":"3595504","gmt":"4","airport_id":"5098","iata_code":"MSH","city_iata_code":"MSH","icao_code":"OOMA","country_iso2":"OM","geoname_id":"6300103","latitude":"20.680555","longitude":"58.891666","airport_name":"Masirah","country_name":"Oman","phone_number":null,"timezone":"Asia\/Muscat"},{"id":"3595506","gmt":"9","airport_id":"5100","iata_code":"MSJ","city_iata_code":"MSJ","icao_code":"RJSM","country_iso2":"JP","geoname_id":"6300395","latitude":"40.696316","longitude":"141.3869","airport_name":"Misawa","country_name":"Japan","phone_number":null,"timezone":"Asia\/Tokyo"},{"id":"3595508","gmt":"-6","airport_id":"5102","iata_code":"MSL","city_iata_code":"MSL","icao_code":"KMSL","country_iso2":"US","geoname_id":"4078964","latitude":"34.74861","longitude":"-87.61611","airport_name":"Sheffield","country_name":"United States","phone_number":null,"timezone":"America\/Chicago"},{"id":"3595509","gmt":"1","airport_id":"5103","iata_code":"MSM","city_iata_code":"MSM","icao_code":"FZCV","country_iso2":"CD","geoname_id":"7730558","latitude":"-4.766667","longitude":"17.916668","airport_name":"Masi Manimba","country_name":"Democratic Republic of the Congo","phone_number":null,"timezone":"Africa\/Kinshasa"},{"id":"3595510","gmt":"-6","airport_id":"5104","iata_code":"MSN","city_iata_code":"MSN","icao_code":"KMSN","country_iso2":"US","geoname_id":"5261457","latitude":"43.136375","longitude":"-89.3465","airport_name":"Dane County Regional","country_name":"United States","phone_number":null,"timezone":"America\/Chicago"},{"id":"3595511","gmt":"-7","airport_id":"5105","iata_code":"MSO","city_iata_code":"MSO","icao_code":"KMSO","country_iso2":"US","geoname_id":"5666675","latitude":"46.918964","longitude":"-114.08321","airport_name":"Missoula International","country_name":"United States","phone_number":null,"timezone":"America\/Denver"},{"id":"3595512","gmt":"-6","airport_id":"5106","iata_code":"MSP","city_iata_code":"MSP","icao_code":"KMSP","country_iso2":"US","geoname_id":"5037658","latitude":"44.883015","longitude":"-93.21092","airport_name":"Minneapolis - St. Paul International","country_name":"United States","phone_number":"612-726-5555","timezone":"America\/Chicago"},{"id":"3595513","gmt":"3","airport_id":"5107","iata_code":"MSQ","city_iata_code":"MSQ","icao_code":"UMMS","country_iso2":"BY","geoname_id":"6301868","latitude":"53.889725","longitude":"28.032442","airport_name":"Minsk National 2","country_name":"Belarus","phone_number":null,"timezone":"Europe\/Minsk"},{"id":"3595514","gmt":"3","airport_id":"5108","iata_code":"MSR","city_iata_code":"MSR","icao_code":"LTCK","country_iso2":"TR","geoname_id":"6299769","latitude":"38.725","longitude":"41.625","airport_name":"Mus","country_name":"Turkey","phone_number":null,"timezone":"Europe\/Istanbul"},{"id":"3595515","gmt":"-5","airport_id":"5109","iata_code":"MSS","city_iata_code":"MSS","icao_code":"KMSS","country_iso2":"US","geoname_id":"5126194","latitude":"44.93778","longitude":"-74.846664","airport_name":"Richards Field","country_name":"United States","phone_number":null,"timezone":"America\/New_York"},{"id":"3595516","gmt":"1","airport_id":"5110","iata_code":"MST","city_iata_code":"MST","icao_code":"EHBK","country_iso2":"NL","geoname_id":"6296681","latitude":"50.91562","longitude":"5.768827","airport_name":"Maastricht\/aachen","country_name":"Netherlands","phone_number":null,"timezone":"Europe\/Amsterdam"},{"id":"3595517","gmt":"2","airport_id":"5111","iata_code":"MSU","city_iata_code":"MSU","icao_code":"FXMM","country_iso2":"LS","geoname_id":"6297128","latitude":"-29.30139","longitude":"27.505556","airport_name":"Moshoeshoe International","country_name":"Lesotho","phone_number":null,"timezone":"Africa\/Maseru"},{"id":"3595518","gmt":"-5","airport_id":"5112","iata_code":"MSV","city_iata_code":"MSV","icao_code":"KMSV","country_iso2":"US","geoname_id":"5140137","latitude":"41.70139","longitude":"-74.795","airport_name":"Sullivan County International","country_name":"United States","phone_number":null,"timezone":"America\/New_York"},{"id":"3595519","gmt":"3","airport_id":"5113","iata_code":"MSW","city_iata_code":"MSW","icao_code":"HHMS","country_iso2":"ER","geoname_id":"7730092","latitude":"15.603333","longitude":"39.441113","airport_name":"Massawa International","country_name":"Eritrea","phone_number":null,"timezone":"Africa\/Asmara"},{"id":"3595521","gmt":"-6","airport_id":"5115","iata_code":"MSY","city_iata_code":"MSY","icao_code":"KMSY","country_iso2":"US","geoname_id":"4335061","latitude":"29.984564","longitude":"-90.25639","airport_name":"Louis Armstrong New Orl\u00e9ans International Airport","country_name":"United States","phone_number":"504-303-7500","timezone":"America\/Chicago"},{"id":"3595522","gmt":"1","airport_id":"5116","iata_code":"MSZ","city_iata_code":"MSZ","icao_code":"FNMO","country_iso2":"AO","geoname_id":"7668250","latitude":"-15.208611","longitude":"12.160833","airport_name":"Namibe","country_name":"Angola","phone_number":null,"timezone":"Africa\/Luanda"},{"id":"3595524","gmt":"-5","airport_id":"5118","iata_code":"MTB","city_iata_code":"MTB","icao_code":"SKML","country_iso2":"CO","geoname_id":"7731295","latitude":"8.066667","longitude":"-75.46667","airport_name":"Monte Libano","country_name":"Colombia","phone_number":null,"timezone":"America\/Bogota"},{"id":"3595525","gmt":"-5","airport_id":"5119","iata_code":"MTC","city_iata_code":"MTC","icao_code":"KMTC","country_iso2":"US","geoname_id":"6298708","latitude":"42.583332","longitude":"-82.88333","airport_name":"Selfridge ANGB","country_name":"United States","phone_number":null,"timezone":"America\/Detroit"},{"id":"3595526","gmt":"9.30","airport_id":"5120","iata_code":"MTD","city_iata_code":"MTD","icao_code":"YMSF","country_iso2":"AU","geoname_id":"7731296","latitude":"-17","longitude":"130.56667","airport_name":"Mt Sandford","country_name":"Australia","phone_number":null,"timezone":"Australia\/Darwin"},{"id":"3595527","gmt":"-3","airport_id":"5121","iata_code":"MTE","city_iata_code":"MTE","icao_code":"SNMA","country_iso2":"BR","geoname_id":"7731297","latitude":"-1.983333","longitude":"-54.066666","airport_name":"Monte Alegre","country_name":"Brazil","phone_number":null,"timezone":"America\/Santarem"},{"id":"3595528","gmt":"3","airport_id":"5122","iata_code":"MTF","city_iata_code":"MTF","icao_code":"HAMT","country_iso2":"ET","geoname_id":"7730591","latitude":"6.966667","longitude":"35.533333","airport_name":"Mizan Teferi","country_name":"Ethiopia","phone_number":null,"timezone":"Africa\/Addis_Ababa"},{"id":"3595530","gmt":"-5","airport_id":"5124","iata_code":"MTH","city_iata_code":"MTH","icao_code":"KMTH","country_iso2":"US","geoname_id":"4163380","latitude":"24.719444","longitude":"-81.05139","airport_name":"The Florida Keys Marathon","country_name":"United States","phone_number":null,"timezone":"America\/New_York"},{"id":"3595531","gmt":"-1","airport_id":"5125","iata_code":"MTI","city_iata_code":"MTI","icao_code":"GVMT","country_iso2":"CV","geoname_id":"7730582","latitude":"15","longitude":"-24.433332","airport_name":"Mosteiros","country_name":"Cape Verde","phone_number":null,"timezone":"Atlantic\/Cape_Verde"},{"id":"3595532","gmt":"-7","airport_id":"5126","iata_code":"MTJ","city_iata_code":"MTJ","icao_code":"KMTJ","country_iso2":"US","geoname_id":"5431733","latitude":"38.51029","longitude":"-107.89696","airport_name":"Montrose Regional Airport","country_name":"United States","phone_number":null,"timezone":"America\/Denver"},{"id":"3595534","gmt":"10","airport_id":"5128","iata_code":"MTL","city_iata_code":"MTL","icao_code":"YMND","country_iso2":"AU","geoname_id":"7731298","latitude":"-32.733334","longitude":"151.55","airport_name":"Maitland","country_name":"Australia","phone_number":null,"timezone":"Australia\/Sydney"},{"id":"3595535","gmt":"-9","airport_id":"5129","iata_code":"MTM","city_iata_code":"MTM","icao_code":"PAMM","country_iso2":"US","geoname_id":"5555695","latitude":"55.13333","longitude":"-131.58333","airport_name":"SPB","country_name":"United States","phone_number":null,"timezone":"America\/Metlakatla"},{"id":"3595536","gmt":"-5","airport_id":"5130","iata_code":"MTN","city_iata_code":"BWI","icao_code":"KMTN","country_iso2":"US","geoname_id":"4361793","latitude":"39.321667","longitude":"-76.41167","airport_name":"Glenn L Martin","country_name":"United States","phone_number":null,"timezone":"America\/New_York"},{"id":"3595537","gmt":"-6","airport_id":"5131","iata_code":"MTO","city_iata_code":"MTO","icao_code":"KMTO","country_iso2":"US","geoname_id":"4236160","latitude":"39.47861","longitude":"-88.278336","airport_name":"Coles County Memorial","country_name":"United States","phone_number":null,"timezone":"America\/Chicago"},{"id":"3595538","gmt":"-5","airport_id":"5132","iata_code":"MTP","city_iata_code":"MTP","icao_code":"KMTP","country_iso2":"US","geoname_id":"5127322","latitude":"41.074444","longitude":"-71.923615","airport_name":"Montauk Airport","country_name":"United States","phone_number":null,"timezone":"America\/New_York"},{"id":"3595539","gmt":"10","airport_id":"5133","iata_code":"MTQ","city_iata_code":"MTQ","icao_code":"YMIT","country_iso2":"AU","geoname_id":"7731299","latitude":"-26.583332","longitude":"147.96666","airport_name":"Mitchell","country_name":"Australia","phone_number":null,"timezone":"Australia\/Brisbane"},{"id":"3595540","gmt":"-5","airport_id":"5134","iata_code":"MTR","city_iata_code":"MTR","icao_code":"SKMR","country_iso2":"CO","geoname_id":"6300747","latitude":"8.825035","longitude":"-75.82392","airport_name":"S. Jeronimo","country_name":"Colombia","phone_number":null,"timezone":"America\/Bogota"},{"id":"3595541","gmt":"2","airport_id":"5135","iata_code":"MTS","city_iata_code":"MTS","icao_code":"FDMS","country_iso2":"SZ","geoname_id":"6296968","latitude":"-26.52033","longitude":"31.314133","airport_name":"Matsapha International","country_name":"Swaziland","phone_number":null,"timezone":"Africa\/Mbabane"},{"id":"3595542","gmt":"-6","airport_id":"5136","iata_code":"MTT","city_iata_code":"MTT","icao_code":"MMMT","country_iso2":"MX","geoname_id":"6299857","latitude":"17.983334","longitude":"-94.51667","airport_name":"Minatitlan","country_name":"Mexico","phone_number":null,"timezone":"America\/Mexico_City"},{"id":"3595544","gmt":"11","airport_id":"5138","iata_code":"MTV","city_iata_code":"MTV","icao_code":"NVSA","country_iso2":"VU","geoname_id":"7668373","latitude":"-13.666667","longitude":"167.66667","airport_name":"Mota Lava","country_name":"Vanuatu","phone_number":null,"timezone":"Pacific\/Efate"},{"id":"3595545","gmt":"-6","airport_id":"5139","iata_code":"MTW","city_iata_code":"MTW","icao_code":"KMTW","country_iso2":"US","geoname_id":"5261588","latitude":"44.129723","longitude":"-87.68222","airport_name":"Municipal","country_name":"United States","phone_number":null,"timezone":"America\/Chicago"},{"id":"3595547","gmt":"-6","airport_id":"5141","iata_code":"MTY","city_iata_code":"MTY","icao_code":"MMMY","country_iso2":"MX","geoname_id":"6299860","latitude":"25.77657","longitude":"-100.114395","airport_name":"Gen Mariano Escobedo","country_name":"Mexico","phone_number":null,"timezone":"America\/Monterrey"},{"id":"3595548","gmt":"2","airport_id":"5142","iata_code":"MTZ","city_iata_code":"MTZ","icao_code":"LLMZ","country_iso2":"IL","geoname_id":"7668323","latitude":"33.233334","longitude":"35.75","airport_name":"Masada","country_name":"Israel","phone_number":null,"timezone":"Asia\/Jerusalem"},{"id":"3595549","gmt":"11","airport_id":"5143","iata_code":"MUA","city_iata_code":"MUA","icao_code":"AGGM","country_iso2":"SB","geoname_id":"6295681","latitude":"-8.32794","longitude":"157.26971","airport_name":"Munda","country_name":"Solomon Islands","phone_number":null,"timezone":"Pacific\/Guadalcanal"},{"id":"3595550","gmt":"2","airport_id":"5144","iata_code":"MUB","city_iata_code":"MUB","icao_code":"FBMN","country_iso2":"BW","geoname_id":"6296948","latitude":"-19.970833","longitude":"23.430555","airport_name":"Maun","country_name":"Botswana","phone_number":null,"timezone":"Africa\/Gaborone"},{"id":"3595551","gmt":"1","airport_id":"5145","iata_code":"MUC","city_iata_code":"MUC","icao_code":"EDDM","country_iso2":"DE","geoname_id":"3208399","latitude":"48.353004","longitude":"11.790143","airport_name":"Franz Josef Strauss","country_name":"Germany","phone_number":"089\/97500","timezone":"Europe\/Berlin"},{"id":"3595553","gmt":"-10","airport_id":"5147","iata_code":"MUE","city_iata_code":"MUE","icao_code":"PHMU","country_iso2":"US","geoname_id":"5854593","latitude":"20.0125","longitude":"-155.67334","airport_name":"Kamuela","country_name":"United States","phone_number":null,"timezone":"Pacific\/Honolulu"},{"id":"3595555","gmt":"-7","airport_id":"5149","iata_code":"MUG","city_iata_code":"MUG","icao_code":"MMMG","country_iso2":"MX","geoname_id":"7730666","latitude":"26.916668","longitude":"-111.98333","airport_name":"Mulege","country_name":"Mexico","phone_number":null,"timezone":"America\/Mazatlan"},{"id":"3595556","gmt":"2","airport_id":"5150","iata_code":"MUH","city_iata_code":"MUH","icao_code":"HEMM","country_iso2":"EG","geoname_id":"6297296","latitude":"31.35","longitude":"27.25","airport_name":"Mersa Matruh","country_name":"Egypt","phone_number":null,"timezone":"Africa\/Cairo"},{"id":"3595559","gmt":"-10","airport_id":"5153","iata_code":"MUK","city_iata_code":"MUK","icao_code":"NCMK","country_iso2":"CK","geoname_id":"7730686","latitude":"-19.333332","longitude":"-158.5","airport_name":"Mauke Island","country_name":"Cook Islands","phone_number":null,"timezone":"Pacific\/Rarotonga"},{"id":"3595560","gmt":"-5","airport_id":"5154","iata_code":"MUL","city_iata_code":"MGR","icao_code":"KMUL","country_iso2":"US","geoname_id":"4223905","latitude":"31.183332","longitude":"-83.78333","airport_name":"Spence","country_name":"United States","phone_number":null,"timezone":"America\/New_York"},{"id":"3595561","gmt":"-4","airport_id":"5155","iata_code":"MUN","city_iata_code":"MUN","icao_code":"SVMT","country_iso2":"VE","geoname_id":"3789620","latitude":"9.749384","longitude":"-63.156933","airport_name":"Quiriquire","country_name":"Venezuela","phone_number":null,"timezone":"America\/Caracas"},{"id":"3595562","gmt":"-7","airport_id":"5156","iata_code":"MUO","city_iata_code":"MUO","icao_code":"KMUO","country_iso2":"US","geoname_id":"5613037","latitude":"43.13333","longitude":"-115.683334","airport_name":"Mountain Home AFB","country_name":"United States","phone_number":null,"timezone":"America\/Boise"},{"id":"3595563","gmt":"8","airport_id":"5157","iata_code":"MUQ","city_iata_code":"MUQ","icao_code":"YMUC","country_iso2":"AU","geoname_id":"7731304","latitude":"-20.666668","longitude":"120","airport_name":"Muccan","country_name":"Australia","phone_number":null,"timezone":"Australia\/Perth"},{"id":"3595564","gmt":"8","airport_id":"5158","iata_code":"MUR","city_iata_code":"MUR","icao_code":"WBGM","country_iso2":"MY","geoname_id":"1737919","latitude":"4.183333","longitude":"114.316666","airport_name":"Marudi","country_name":"Malaysia","phone_number":null,"timezone":"Asia\/Kuching"},{"id":"3595566","gmt":"-6","airport_id":"5160","iata_code":"MUT","city_iata_code":"MUT","icao_code":"KMUT","country_iso2":"US","geoname_id":"4868426","latitude":"41.36667","longitude":"-91.145","airport_name":"Muscatine","country_name":"United States","phone_number":null,"timezone":"America\/Chicago"},{"id":"3595569","gmt":"1","airport_id":"5163","iata_code":"MUW","city_iata_code":"MUW","icao_code":"DAOV","country_iso2":"DZ","geoname_id":"6296383","latitude":"35.333332","longitude":"0.15","airport_name":"Mascara-Ghriss","country_name":null,"phone_number":null,"timezone":"Africa\/Algiers"},{"id":"3595570","gmt":"5","airport_id":"5164","iata_code":"MUX","city_iata_code":"MUX","icao_code":"OPMT","country_iso2":"PK","geoname_id":"6300114","latitude":"30.199507","longitude":"71.41498","airport_name":"Multan International","country_name":"Pakistan","phone_number":null,"timezone":"Asia\/Karachi"},{"id":"3595571","gmt":"1","airport_id":"5165","iata_code":"MUY","city_iata_code":"MUY","icao_code":"FCBM","country_iso2":"CG","geoname_id":"6296957","latitude":"-3.983333","longitude":"13.919444","airport_name":"Mouyondzi","country_name":"Republic of the Congo","phone_number":null,"timezone":"Africa\/Brazzaville"},{"id":"3595572","gmt":"3","airport_id":"5166","iata_code":"MUZ","city_iata_code":"MUZ","icao_code":"HTMU","country_iso2":"TZ","geoname_id":"6297364","latitude":"-1.497222","longitude":"33.8","airport_name":"Musoma","country_name":"Tanzania","phone_number":null,"timezone":"Africa\/Dar_es_Salaam"},{"id":"3595573","gmt":null,"airport_id":"5167","iata_code":"MVA","city_iata_code":"MVA","icao_code":"BIRL","country_iso2":"IS","geoname_id":"7730437","latitude":"65.61667","longitude":"-16.966667","airport_name":"Reykiahlid","country_name":"Iceland","phone_number":null,"timezone":"Atlantic\/Reykjavik"},{"id":"3595574","gmt":"1","airport_id":"5168","iata_code":"MVB","city_iata_code":"MVB","icao_code":"FOON","country_iso2":"GA","geoname_id":"6297074","latitude":"-1.65","longitude":"13.433333","airport_name":"Franceville\/Mvengue","country_name":"Gabon","phone_number":null,"timezone":"Africa\/Libreville"},{"id":"3595575","gmt":"-6","airport_id":"5169","iata_code":"MVC","city_iata_code":"MVC","icao_code":"KMVC","country_iso2":"US","geoname_id":"4076725","latitude":"31.516666","longitude":"-87.333336","airport_name":"Monroe - Walton County","country_name":"United States","phone_number":null,"timezone":"America\/Chicago"},{"id":"3595576","gmt":"-3","airport_id":"5170","iata_code":"MVD","city_iata_code":"MVD","icao_code":"SUMU","country_iso2":"UY","geoname_id":"3443317","latitude":"-34.841152","longitude":"-56.026466","airport_name":"Carrasco International","country_name":"Uruguay","phone_number":null,"timezone":"America\/Montevideo"},{"id":"3595578","gmt":"-3","airport_id":"5172","iata_code":"MVF","city_iata_code":"MVF","icao_code":"SBMW","country_iso2":"BR","geoname_id":"6300646","latitude":"-5.166667","longitude":"-37.25","airport_name":"Dixsept Rosado","country_name":"Brazil","phone_number":null,"timezone":"America\/Fortaleza"},{"id":"3595581","gmt":"9.30","airport_id":"5175","iata_code":"MVK","city_iata_code":"MVK","icao_code":"YMUK","country_iso2":"AU","geoname_id":"7731305","latitude":"-27.25","longitude":"138","airport_name":"Mulka","country_name":"Australia","phone_number":null,"timezone":"Australia\/Adelaide"},{"id":"3595582","gmt":"-5","airport_id":"5176","iata_code":"MVL","city_iata_code":"MVL","icao_code":"KMVL","country_iso2":"US","geoname_id":"5238772","latitude":"44.566666","longitude":"-72.6","airport_name":"Morrisville-Stowe","country_name":"United States","phone_number":null,"timezone":"America\/New_York"},{"id":"3595586","gmt":"-5","airport_id":"5180","iata_code":"MVP","city_iata_code":"MVP","icao_code":"SKMU","country_iso2":"CO","geoname_id":"6300748","latitude":"1.133333","longitude":"-70.05","airport_name":"Mitu","country_name":"Colombia","phone_number":null,"timezone":"America\/Bogota"},{"id":"3595587","gmt":"3","airport_id":"5181","iata_code":"MVQ","city_iata_code":"MVQ","icao_code":"UMOO","country_iso2":"BY","geoname_id":"7668522","latitude":"53.95","longitude":"30.133333","airport_name":"Mogilev","country_name":"Belarus","phone_number":null,"timezone":"Europe\/Minsk"},{"id":"3595588","gmt":"1","airport_id":"5182","iata_code":"MVR","city_iata_code":"MVR","icao_code":"FKKL","country_iso2":"CM","geoname_id":"7668241","latitude":"10.452222","longitude":"14.256389","airport_name":"Salam","country_name":"Cameroon","phone_number":null,"timezone":"Africa\/Douala"},{"id":"3595589","gmt":"-3","airport_id":"5183","iata_code":"MVS","city_iata_code":"MVS","icao_code":"SNMU","country_iso2":"BR","geoname_id":"7731306","latitude":"-18.083332","longitude":"-39.566666","airport_name":"Aeroporto Max Feffer","country_name":"Brazil","phone_number":null,"timezone":"America\/Bahia"},{"id":"3595590","gmt":"-10","airport_id":"5184","iata_code":"MVT","city_iata_code":"MVT","icao_code":"NTGV","country_iso2":"PF","geoname_id":"7730128","latitude":"-14.833333","longitude":"-148.41667","airport_name":"Mataiva","country_name":"French Polynesia","phone_number":null,"timezone":"Pacific\/Tahiti"},{"id":"3595593","gmt":"-8","airport_id":"5187","iata_code":"MVW","city_iata_code":"MVW","icao_code":"KBVS","country_iso2":"US","geoname_id":"5786501","latitude":"48.416668","longitude":"-122.333336","airport_name":"Skagit Regional","country_name":"United States","phone_number":null,"timezone":"America\/Los_Angeles"},{"id":"3595594","gmt":"1","airport_id":"5188","iata_code":"MVX","city_iata_code":"MVX","icao_code":"FOGV","country_iso2":"GA","geoname_id":"7730528","latitude":"2.15","longitude":"12.133333","airport_name":"Minvoul","country_name":"Gabon","phone_number":null,"timezone":"Africa\/Libreville"},{"id":"3595595","gmt":"-5","airport_id":"5189","iata_code":"MVY","city_iata_code":"MVY","icao_code":"KMVY","country_iso2":"US","geoname_id":"4943237","latitude":"41.389336","longitude":"-70.61182","airport_name":"Martha\u0027s Vineyard","country_name":"United States","phone_number":null,"timezone":"America\/New_York"},{"id":"3595596","gmt":"2","airport_id":"5190","iata_code":"MVZ","city_iata_code":"MVZ","icao_code":"FVMV","country_iso2":"ZW","geoname_id":"6297113","latitude":"-20.054167","longitude":"30.860556","airport_name":"Masvingo","country_name":"Zimbabwe","phone_number":null,"timezone":"Africa\/Harare"},{"id":"3595597","gmt":"-6","airport_id":"5191","iata_code":"MWA","city_iata_code":"MWA","icao_code":"KMWA","country_iso2":"US","geoname_id":"4253176","latitude":"37.751945","longitude":"-89.01639","airport_name":"Williamson County","country_name":"United States","phone_number":null,"timezone":"America\/Chicago"},{"id":"3595599","gmt":"-6","airport_id":"5193","iata_code":"MWC","city_iata_code":"MKE","icao_code":"KMWC","country_iso2":"US","geoname_id":"5259610","latitude":"43.033333","longitude":"-87.916664","airport_name":"Lawrence J Timmerman","country_name":"United States","phone_number":null,"timezone":"America\/Chicago"},{"id":"3595600","gmt":"5","airport_id":"5194","iata_code":"MWD","city_iata_code":"MWD","icao_code":"OPMI","country_iso2":"PK","geoname_id":"1333471","latitude":"32.55","longitude":"71.55","airport_name":"Mianwali","country_name":"Pakistan","phone_number":null,"timezone":"Asia\/Karachi"},{"id":"3595601","gmt":"3","airport_id":"5195","iata_code":"MWE","city_iata_code":"MWE","icao_code":"HSMR","country_iso2":"SD","geoname_id":"8224629","latitude":"18.45","longitude":"31.833332","airport_name":"Merowe","country_name":"Sudan","phone_number":null,"timezone":"Africa\/Khartoum"},{"id":"3595602","gmt":"11","airport_id":"5196","iata_code":"MWF","city_iata_code":"MWF","icao_code":"NVSN","country_iso2":"VU","geoname_id":"7730713","latitude":"-15.166667","longitude":"168.16667","airport_name":"Maewo","country_name":"Vanuatu","phone_number":null,"timezone":"Pacific\/Efate"},{"id":"3595604","gmt":"-8","airport_id":"5198","iata_code":"MWH","city_iata_code":"MWH","icao_code":"KMWH","country_iso2":"US","geoname_id":"5803990","latitude":"47.205","longitude":"-119.31556","airport_name":"Grant County","country_name":"United States","phone_number":null,"timezone":"America\/Los_Angeles"},{"id":"3595607","gmt":"7","airport_id":"5201","iata_code":"MWK","city_iata_code":"MWK","icao_code":"WIOM","country_iso2":"ID","geoname_id":"7668673","latitude":"3.3","longitude":"106.26667","airport_name":"Matak","country_name":"Indonesia","phone_number":null,"timezone":"Asia\/Jakarta"},{"id":"3595608","gmt":"-6","airport_id":"5202","iata_code":"MWL","city_iata_code":"MWL","icao_code":"KMWL","country_iso2":"US","geoname_id":"4711648","latitude":"32.783333","longitude":"-98.066666","airport_name":"Mineral Wells Airport","country_name":"United States","phone_number":null,"timezone":"America\/Chicago"},{"id":"3595609","gmt":"-6","airport_id":"5203","iata_code":"MWM","city_iata_code":"MWM","icao_code":"KMWM","country_iso2":"US","geoname_id":"5053092","latitude":"43.916668","longitude":"-95.1","airport_name":"Windom Municipal","country_name":"United States","phone_number":null,"timezone":"America\/Chicago"},{"id":"3595610","gmt":"3","airport_id":"5204","iata_code":"MWN","city_iata_code":"MWN","icao_code":"HTMD","country_iso2":"TZ","geoname_id":"7730622","latitude":"-3.55","longitude":"33.6","airport_name":"Mwadui","country_name":"Tanzania","phone_number":null,"timezone":"Africa\/Dar_es_Salaam"},{"id":"3595613","gmt":"6.30","airport_id":"5207","iata_code":"MWQ","city_iata_code":"MWQ","icao_code":"VYMW","country_iso2":"MM","geoname_id":"7731309","latitude":"20.166668","longitude":"94.94111","airport_name":"Magwe","country_name":null,"phone_number":null,"timezone":"Asia\/Rangoon"},{"id":"3595619","gmt":"9","airport_id":"5213","iata_code":"MWX","city_iata_code":"MWX","icao_code":"RKJB","country_iso2":"KR","geoname_id":"8299100","latitude":"34.991405","longitude":"126.38281","airport_name":"Muan International","country_name":"South Korea","phone_number":null,"timezone":"Asia\/Seoul"},{"id":"3595621","gmt":"3","airport_id":"5215","iata_code":"MWZ","city_iata_code":"MWZ","icao_code":"HTMW","country_iso2":"TZ","geoname_id":"6297365","latitude":"-2.441221","longitude":"32.923225","airport_name":"Mwanza","country_name":"Tanzania","phone_number":null,"timezone":"Africa\/Dar_es_Salaam"},{"id":"3595622","gmt":"-6","airport_id":"5216","iata_code":"MXA","city_iata_code":"MXA","icao_code":"KMXA","country_iso2":"US","geoname_id":"4120424","latitude":"35.88333","longitude":"-90.183334","airport_name":"Municipal","country_name":"United States","phone_number":null,"timezone":"America\/Chicago"}]}