{"pagination":{"offset":5800,"limit":100,"count":100,"total":6710},"data":[{"id":"3598774","gmt":"2","airport_id":"8368","iata_code":"VOL","city_iata_code":"VOL","icao_code":"LGBL","country_iso2":"GR","geoname_id":"6299485","latitude":"39.38333","longitude":"22.93111","airport_name":"Nea Anchialos","country_name":"Greece","phone_number":null,"timezone":"Europe\/Athens"},{"id":"3598775","gmt":"-3","airport_id":"8369","iata_code":"VOT","city_iata_code":"VOT","icao_code":"SDVG","country_iso2":"BR","geoname_id":"7731607","latitude":"-20.433332","longitude":"-49.88333","airport_name":"Votuporanga","country_name":"Brazil","phone_number":null,"timezone":"America\/Sao_Paulo"},{"id":"3598776","gmt":"3","airport_id":"8370","iata_code":"VOZ","city_iata_code":"VOZ","icao_code":"UUOO","country_iso2":"RU","geoname_id":"6301017","latitude":"51.812355","longitude":"39.226997","airport_name":"Chertovitskoye","country_name":"Russia","phone_number":null,"timezone":"Europe\/Moscow"},{"id":"3598777","gmt":"1","airport_id":"8371","iata_code":"VPE","city_iata_code":"VPE","icao_code":"FNGI","country_iso2":"AO","geoname_id":"7730078","latitude":"-17.05","longitude":"15.7","airport_name":"Ondjiva","country_name":"Angola","phone_number":null,"timezone":"Africa\/Luanda"},{"id":"3598779","gmt":null,"airport_id":"8373","iata_code":"VPN","city_iata_code":"VPN","icao_code":"BIVO","country_iso2":"IS","geoname_id":"6295715","latitude":"65.75694","longitude":"-14.829444","airport_name":"Vopnafjordur","country_name":"Iceland","phone_number":null,"timezone":"Atlantic\/Reykjavik"},{"id":"3598780","gmt":"-6","airport_id":"8374","iata_code":"VPS","city_iata_code":"VPS","icao_code":"KVPS","country_iso2":"US","geoname_id":"4176316","latitude":"30.495913","longitude":"-86.54946","airport_name":"Eglin AFB","country_name":"United States","phone_number":null,"timezone":"America\/Chicago"},{"id":"3598781","gmt":"2","airport_id":"8375","iata_code":"VPY","city_iata_code":"VPY","icao_code":"FQCH","country_iso2":"MZ","geoname_id":"6297082","latitude":"-19.133333","longitude":"33.483334","airport_name":"Chimoio","country_name":"Mozambique","phone_number":null,"timezone":"Africa\/Maputo"},{"id":"3598782","gmt":"-6","airport_id":"8376","iata_code":"VPZ","city_iata_code":"VPZ","icao_code":"KVPZ","country_iso2":"US","geoname_id":"4927537","latitude":"41.4525","longitude":"-87.00528","airport_name":"Porter County","country_name":"United States","phone_number":null,"timezone":"America\/Chicago"},{"id":"3598785","gmt":"-5","airport_id":"8379","iata_code":"VRA","city_iata_code":"VRA","icao_code":"MUVR","country_iso2":"CU","geoname_id":"6299931","latitude":"23.039896","longitude":"-81.43694","airport_name":"Juan Gualberto Gomez","country_name":"Cuba","phone_number":"534-561-3016","timezone":"America\/Havana"},{"id":"3598786","gmt":"-5","airport_id":"8380","iata_code":"VRB","city_iata_code":"VRB","icao_code":"KVRB","country_iso2":"US","geoname_id":"4176414","latitude":"27.6525","longitude":"-80.41361","airport_name":"Vero Beach Municipal","country_name":"United States","phone_number":null,"timezone":"America\/New_York"},{"id":"3598787","gmt":"8","airport_id":"8381","iata_code":"VRC","city_iata_code":"VRC","icao_code":"RPUV","country_iso2":"PH","geoname_id":"1679803","latitude":"13.583333","longitude":"124.2","airport_name":"Virac","country_name":"Philippines","phone_number":null,"timezone":"Asia\/Manila"},{"id":"3598788","gmt":"2","airport_id":"8382","iata_code":"VRE","city_iata_code":"VRE","icao_code":"FAVR","country_iso2":"ZA","geoname_id":"6296938","latitude":"-31.666668","longitude":"18.5","airport_name":"Vredendal","country_name":"South Africa","phone_number":null,"timezone":"Africa\/Johannesburg"},{"id":"3598790","gmt":"2","airport_id":"8384","iata_code":"VRK","city_iata_code":"VRK","icao_code":"EFVR","country_iso2":"FI","geoname_id":"6296568","latitude":"62.3","longitude":"27.933332","airport_name":"Varkaus","country_name":"Finland","phone_number":null,"timezone":"Europe\/Helsinki"},{"id":"3598791","gmt":null,"airport_id":"8385","iata_code":"VRL","city_iata_code":"VRL","icao_code":"LPVR","country_iso2":"PT","geoname_id":"6299692","latitude":"41.3","longitude":"-7.75","airport_name":"Vila Real","country_name":"Portugal","phone_number":null,"timezone":"Europe\/Lisbon"},{"id":"3598792","gmt":"1","airport_id":"8386","iata_code":"VRN","city_iata_code":"VRN","icao_code":"LIPX","country_iso2":"IT","geoname_id":"6299601","latitude":"45.40233","longitude":"10.906796","airport_name":"Valerio Catullo","country_name":"Italy","phone_number":null,"timezone":"Europe\/Rome"},{"id":"3598795","gmt":"2","airport_id":"8389","iata_code":"VRU","city_iata_code":"VRU","icao_code":"FAVB","country_iso2":"ZA","geoname_id":"942513","latitude":"-26.916668","longitude":"24.75","airport_name":"Vryburg","country_name":"South Africa","phone_number":null,"timezone":"Africa\/Johannesburg"},{"id":"3598797","gmt":"-6","airport_id":"8391","iata_code":"VSA","city_iata_code":"VSA","icao_code":"MMVA","country_iso2":"MX","geoname_id":"6299881","latitude":"17.99243","longitude":"-92.818985","airport_name":"Capitan Carlos Rovirosa","country_name":"Mexico","phone_number":null,"timezone":"America\/Mexico_City"},{"id":"3598798","gmt":null,"airport_id":"8392","iata_code":"VSE","city_iata_code":"VSE","icao_code":"LPVZ","country_iso2":"PT","geoname_id":"7730103","latitude":"40.65","longitude":"-7.916667","airport_name":"Viseu","country_name":"Portugal","phone_number":null,"timezone":"Europe\/Lisbon"},{"id":"3598800","gmt":"2","airport_id":"8394","iata_code":"VSG","city_iata_code":"VSG","icao_code":"UKCW","country_iso2":"UA","geoname_id":"7668508","latitude":"48.566666","longitude":"39.333332","airport_name":"Lugansk","country_name":"Ukraine","phone_number":null,"timezone":"Europe\/Kiev"},{"id":"3598803","gmt":"1","airport_id":"8397","iata_code":"VST","city_iata_code":"STO","icao_code":"ESOW","country_iso2":"SE","geoname_id":"2707371","latitude":"59.58917","longitude":"16.630556","airport_name":"Vasteras\/Hasslo","country_name":"Sweden","phone_number":null,"timezone":"Europe\/Stockholm"},{"id":"3598805","gmt":"3","airport_id":"8399","iata_code":"VTB","city_iata_code":"VTB","icao_code":"UMII","country_iso2":"BY","geoname_id":"6300978","latitude":"55.13333","longitude":"30.366667","airport_name":"Vitebsk","country_name":"Belarus","phone_number":null,"timezone":"Europe\/Minsk"},{"id":"3598806","gmt":"7","airport_id":"8400","iata_code":"VTE","city_iata_code":"VTE","icao_code":"VLVT","country_iso2":"LA","geoname_id":"6301112","latitude":"17.975431","longitude":"102.56772","airport_name":"Wattay","country_name":"Laos","phone_number":null,"timezone":"Asia\/Vientiane"},{"id":"3598807","gmt":"12","airport_id":"8401","iata_code":"VTF","city_iata_code":"VTF","icao_code":"NFVL","country_iso2":"FJ","geoname_id":"6453430","latitude":"-18.55","longitude":"177.61667","airport_name":"Vatulele","country_name":null,"phone_number":null,"timezone":"Pacific\/Fiji"},{"id":"3598808","gmt":"7","airport_id":"8402","iata_code":"VTG","city_iata_code":"VTG","icao_code":"VVVT","country_iso2":"VN","geoname_id":"7731608","latitude":"10.374444","longitude":"107.09111","airport_name":"Vung Tau","country_name":null,"phone_number":null,"timezone":"Asia\/Ho_Chi_Minh"},{"id":"3598809","gmt":"1","airport_id":"8403","iata_code":"VTL","city_iata_code":"VTL","icao_code":"LFSZ","country_iso2":"FR","geoname_id":"7730630","latitude":"48.2","longitude":"5.95","airport_name":"Vittel","country_name":"France","phone_number":null,"timezone":"Europe\/Paris"},{"id":"3598810","gmt":"2","airport_id":"8404","iata_code":"VTM","city_iata_code":"VTM","icao_code":"LLNV","country_iso2":"IL","geoname_id":"8224623","latitude":"31.20473","longitude":"35.02047","airport_name":"Nevatim AFB","country_name":"Israel","phone_number":null,"timezone":"Asia\/Jerusalem"},{"id":"3598811","gmt":"-6","airport_id":"8405","iata_code":"VTN","city_iata_code":"VTN","icao_code":"KVTN","country_iso2":"US","geoname_id":"5700344","latitude":"42.86667","longitude":"-100.55","airport_name":"Miller Field","country_name":"United States","phone_number":null,"timezone":"America\/Chicago"},{"id":"3598812","gmt":"-5","airport_id":"8406","iata_code":"VTU","city_iata_code":"VTU","icao_code":"MUVT","country_iso2":"CU","geoname_id":"6299932","latitude":"20.966667","longitude":"-76.95","airport_name":"Las Tunas","country_name":"Cuba","phone_number":null,"timezone":"America\/Havana"},{"id":"3598813","gmt":"5.30","airport_id":"8407","iata_code":"VTZ","city_iata_code":"VTZ","icao_code":"VEVZ","country_iso2":"IN","geoname_id":"7668597","latitude":"17.728151","longitude":"83.22675","airport_name":"Vishakhapatnam","country_name":"India","phone_number":null,"timezone":"Asia\/Kolkata"},{"id":"3598814","gmt":"-5","airport_id":"8408","iata_code":"VUP","city_iata_code":"VUP","icao_code":"SKVP","country_iso2":"CO","geoname_id":"6300762","latitude":"10.436667","longitude":"-73.25278","airport_name":"Valledupar","country_name":"Colombia","phone_number":null,"timezone":"America\/Bogota"},{"id":"3598815","gmt":"3","airport_id":"8409","iata_code":"VUS","city_iata_code":"VUS","icao_code":"ULWU","country_iso2":"RU","geoname_id":"7731609","latitude":"60.766666","longitude":"46.316666","airport_name":"Velikij Ustyug","country_name":"Russia","phone_number":null,"timezone":"Europe\/Moscow"},{"id":"3598817","gmt":"3","airport_id":"8411","iata_code":"VVB","city_iata_code":"VVB","icao_code":"FMMH","country_iso2":"MG","geoname_id":"6297037","latitude":"-19.833332","longitude":"48.8","airport_name":"Mahanoro","country_name":"Madagascar","phone_number":null,"timezone":"Indian\/Antananarivo"},{"id":"3598818","gmt":"-5","airport_id":"8412","iata_code":"VVC","city_iata_code":"VVC","icao_code":"SKVV","country_iso2":"CO","geoname_id":"6300763","latitude":"4.078889","longitude":"-73.566666","airport_name":"La Vanguardia","country_name":"Colombia","phone_number":null,"timezone":"America\/Bogota"},{"id":"3598819","gmt":"-4","airport_id":"8413","iata_code":"VVI","city_iata_code":"SRZ","icao_code":"SLVR","country_iso2":"BO","geoname_id":"6300793","latitude":"-17.648233","longitude":"-63.140488","airport_name":"Viru Viru International","country_name":"Bolivia","phone_number":null,"timezone":"America\/La_Paz"},{"id":"3598822","gmt":"10","airport_id":"8416","iata_code":"VVO","city_iata_code":"VVO","icao_code":"UHWW","country_iso2":"RU","geoname_id":"6300942","latitude":"43.378574","longitude":"132.14075","airport_name":"Vladivostok","country_name":"Russia","phone_number":null,"timezone":"Asia\/Vladivostok"},{"id":"3598823","gmt":"1","airport_id":"8417","iata_code":"VVZ","city_iata_code":"VVZ","icao_code":"DAAP","country_iso2":"DZ","geoname_id":"6296365","latitude":"26.533333","longitude":"8.55","airport_name":"Illizi","country_name":null,"phone_number":null,"timezone":"Africa\/Algiers"},{"id":"3598824","gmt":"2","airport_id":"8418","iata_code":"VXC","city_iata_code":"VXC","icao_code":"FQLC","country_iso2":"MZ","geoname_id":"1087469","latitude":"-13.283333","longitude":"35.25","airport_name":"Lichinga","country_name":"Mozambique","phone_number":null,"timezone":"Africa\/Maputo"},{"id":"3598825","gmt":"-1","airport_id":"8419","iata_code":"VXE","city_iata_code":"VXE","icao_code":"GVSV","country_iso2":"CV","geoname_id":"6453416","latitude":"16.835613","longitude":"-25.057571","airport_name":"San Pedro","country_name":"Cape Verde","phone_number":null,"timezone":"Atlantic\/Cape_Verde"},{"id":"3598826","gmt":"1","airport_id":"8420","iata_code":"VXO","city_iata_code":"VXO","icao_code":"ESMX","country_iso2":"SE","geoname_id":"2663534","latitude":"56.925095","longitude":"14.732046","airport_name":"Smaland Airport","country_name":"Sweden","phone_number":null,"timezone":"Europe\/Stockholm"},{"id":"3598827","gmt":"2","airport_id":"8421","iata_code":"VYD","city_iata_code":"VYD","icao_code":"FAVY","country_iso2":"ZA","geoname_id":"942497","latitude":"-27.783333","longitude":"30.8","airport_name":"Vryheid","country_name":"South Africa","phone_number":null,"timezone":"Africa\/Johannesburg"},{"id":"3598829","gmt":"-9","airport_id":"8423","iata_code":"WAA","city_iata_code":"WAA","icao_code":"PAIW","country_iso2":"US","geoname_id":"5877564","latitude":"65.617226","longitude":"-168.09084","airport_name":"Wales","country_name":"United States","phone_number":null,"timezone":"America\/Anchorage"},{"id":"3598830","gmt":"3","airport_id":"8424","iata_code":"WAC","city_iata_code":"WAC","icao_code":"HAWC","country_iso2":"ET","geoname_id":"7730596","latitude":"7.166667","longitude":"37.166668","airport_name":"Waca","country_name":"Ethiopia","phone_number":null,"timezone":"Africa\/Addis_Ababa"},{"id":"3598832","gmt":"3","airport_id":"8426","iata_code":"WAE","city_iata_code":"WAE","icao_code":"OEWD","country_iso2":"SA","geoname_id":null,"latitude":"20.498444","longitude":"45.20445","airport_name":"Wadi Ad Dawasir","country_name":"Saudi Arabia","phone_number":null,"timezone":"Asia\/Riyadh"},{"id":"3598834","gmt":"12","airport_id":"8428","iata_code":"WAG","city_iata_code":"WAG","icao_code":"NZWU","country_iso2":"NZ","geoname_id":"6224567","latitude":"-39.960922","longitude":"175.02444","airport_name":"Wanganui","country_name":"New Zealand","phone_number":null,"timezone":"Pacific\/Auckland"},{"id":"3598835","gmt":"-6","airport_id":"8429","iata_code":"WAH","city_iata_code":"WAH","icao_code":"KBWP","country_iso2":"US","geoname_id":"5058404","latitude":"46.266666","longitude":"-96.6","airport_name":"Wahpeton","country_name":"United States","phone_number":null,"timezone":"America\/Chicago"},{"id":"3598840","gmt":"3","airport_id":"8434","iata_code":"WAM","city_iata_code":"WAM","icao_code":"FMMZ","country_iso2":"MG","geoname_id":"7730511","latitude":"-17.8","longitude":"48.433334","airport_name":"Ambatondrazaka","country_name":"Madagascar","phone_number":null,"timezone":"Indian\/Antananarivo"},{"id":"3598843","gmt":"-4","airport_id":"8437","iata_code":"WAP","city_iata_code":"WAP","icao_code":"SCAP","country_iso2":"CL","geoname_id":"7730785","latitude":"-43.61667","longitude":"-71.8","airport_name":"Alto Palena","country_name":null,"phone_number":null,"timezone":"America\/Santiago"},{"id":"3598845","gmt":"9","airport_id":"8439","iata_code":"WAR","city_iata_code":"WAR","icao_code":"WAJR","country_iso2":"ID","geoname_id":"7731610","latitude":"-3.116667","longitude":"140.88333","airport_name":"Waris","country_name":"Indonesia","phone_number":null,"timezone":"Asia\/Jayapura"},{"id":"3598846","gmt":null,"airport_id":"8440","iata_code":"WAT","city_iata_code":"WAT","icao_code":"EIWF","country_iso2":"IE","geoname_id":"7668222","latitude":"52.188866","longitude":"-7.080082","airport_name":"Waterford","country_name":"Ireland","phone_number":null,"timezone":"Europe\/Dublin"},{"id":"3598848","gmt":"9.30","airport_id":"8442","iata_code":"WAV","city_iata_code":"WAV","icao_code":"YWAV","country_iso2":"AU","geoname_id":"7731611","latitude":"-17.483334","longitude":"130.95","airport_name":"Kalkgurung","country_name":"Australia","phone_number":null,"timezone":"Australia\/Darwin"},{"id":"3598849","gmt":"1","airport_id":"8443","iata_code":"WAW","city_iata_code":"WAW","icao_code":"EPWA","country_iso2":"PL","geoname_id":"6296786","latitude":"52.170906","longitude":"20.97329","airport_name":"Frederic Chopin","country_name":"Poland","phone_number":"+48 22 650 42","timezone":"Europe\/Warsaw"},{"id":"3598850","gmt":"2","airport_id":"8444","iata_code":"WAX","city_iata_code":"WAX","icao_code":"HLZW","country_iso2":"LY","geoname_id":"7730620","latitude":"51.216667","longitude":"-55.38333","airport_name":"Zwara","country_name":"Libya","phone_number":null,"timezone":"Africa\/Tripoli"},{"id":"3598852","gmt":"10","airport_id":"8446","iata_code":"WAZ","city_iata_code":"WAZ","icao_code":"YWCK","country_iso2":"AU","geoname_id":"7731612","latitude":"-28.15","longitude":"151.95","airport_name":"Warwick","country_name":"Australia","phone_number":null,"timezone":"Australia\/Brisbane"},{"id":"3598858","gmt":"1","airport_id":"8452","iata_code":"WBG","city_iata_code":"WBG","icao_code":"ETNS","country_iso2":"DE","geoname_id":"3208584","latitude":"54.45","longitude":"9.516667","airport_name":"Schleswig-jagel","country_name":"Germany","phone_number":null,"timezone":"Europe\/Berlin"},{"id":"3598861","gmt":"10","airport_id":"8455","iata_code":"WBM","city_iata_code":"WBM","icao_code":"AYWD","country_iso2":"PG","geoname_id":"7668089","latitude":"-5.616667","longitude":"143.91667","airport_name":"Wapenamanda","country_name":"Papua New Guinea","phone_number":null,"timezone":"Pacific\/Port_Moresby"},{"id":"3598863","gmt":"3","airport_id":"8457","iata_code":"WBO","city_iata_code":"WBO","icao_code":"FMSB","country_iso2":"MG","geoname_id":"7730512","latitude":"-21.6","longitude":"45.13333","airport_name":"Beroroha","country_name":"Madagascar","phone_number":null,"timezone":"Indian\/Antananarivo"},{"id":"3598864","gmt":"-9","airport_id":"8458","iata_code":"WBQ","city_iata_code":"WBQ","icao_code":"PAWB","country_iso2":"US","geoname_id":"5880226","latitude":"66.36222","longitude":"-147.40834","airport_name":"Beaver","country_name":"United States","phone_number":null,"timezone":"America\/Anchorage"},{"id":"3598865","gmt":"-5","airport_id":"8459","iata_code":"WBR","city_iata_code":"WBR","icao_code":"KRQB","country_iso2":"US","geoname_id":"5007362","latitude":"43.7","longitude":"-85.48333","airport_name":"Big Rapids","country_name":"United States","phone_number":null,"timezone":"America\/Detroit"},{"id":"3598866","gmt":"-7","airport_id":"8460","iata_code":"WBU","city_iata_code":"WBU","icao_code":"KBDU","country_iso2":"US","geoname_id":"5575026","latitude":"40.039165","longitude":"-105.225555","airport_name":"Boulder Municipal","country_name":"United States","phone_number":null,"timezone":"America\/Denver"},{"id":"3598867","gmt":"-5","airport_id":"8461","iata_code":"WBW","city_iata_code":"AVP","icao_code":"KWBW","country_iso2":"US","geoname_id":"5219493","latitude":"41.233334","longitude":"-75.88333","airport_name":"Wilkes-Barre\/Wyoming Valley","country_name":"United States","phone_number":null,"timezone":"America\/New_York"},{"id":"3598868","gmt":"-4","airport_id":"8462","iata_code":"WCA","city_iata_code":"WCA","icao_code":"SCST","country_iso2":"CL","geoname_id":"7731613","latitude":"-42.5","longitude":"-73.833336","airport_name":"Gamboa","country_name":null,"phone_number":null,"timezone":"America\/Santiago"},{"id":"3598869","gmt":"-4","airport_id":"8463","iata_code":"WCH","city_iata_code":"WCH","icao_code":"SCTN","country_iso2":"CL","geoname_id":"7730169","latitude":"-42.916668","longitude":"-72.71667","airport_name":"Chaiten","country_name":null,"phone_number":null,"timezone":"America\/Santiago"},{"id":"3598870","gmt":"-9","airport_id":"8464","iata_code":"WCR","city_iata_code":"WCR","icao_code":"PALR","country_iso2":"US","geoname_id":"5858964","latitude":"67.505554","longitude":"-148.5","airport_name":"Chandalar","country_name":"United States","phone_number":null,"timezone":"America\/Anchorage"},{"id":"3598873","gmt":"-6","airport_id":"8467","iata_code":"WDG","city_iata_code":"WDG","icao_code":"KWDG","country_iso2":"US","geoname_id":"4535969","latitude":"36.38361","longitude":"-97.79083","airport_name":"Enid Woodring Mun.","country_name":"United States","phone_number":null,"timezone":"America\/Chicago"},{"id":"3598874","gmt":"2","airport_id":"8468","iata_code":"WDH","city_iata_code":"WDH","icao_code":"FYWH","country_iso2":"NA","geoname_id":"3356556","latitude":"-22.487345","longitude":"17.463202","airport_name":"Hosea Kutako International (J. G. Strijdom)","country_name":"Namibia","phone_number":null,"timezone":"Africa\/Windhoek"},{"id":"3598875","gmt":"10","airport_id":"8469","iata_code":"WDI","city_iata_code":"WDI","icao_code":"YWND","country_iso2":"AU","geoname_id":"7731615","latitude":"-26.333332","longitude":"151.81667","airport_name":"Wondai","country_name":"Australia","phone_number":null,"timezone":"Australia\/Brisbane"},{"id":"3598877","gmt":"-5","airport_id":"8471","iata_code":"WDR","city_iata_code":"WDR","icao_code":"KWDR","country_iso2":"US","geoname_id":"4231445","latitude":"33.983334","longitude":"-83.71667","airport_name":"Winder","country_name":"United States","phone_number":null,"timezone":"America\/New_York"},{"id":"3598882","gmt":"8","airport_id":"8476","iata_code":"WEF","city_iata_code":"WEF","icao_code":"ZSWF","country_iso2":"CN","geoname_id":"7730297","latitude":"36.641075","longitude":"119.11347","airport_name":"Weifang","country_name":"China","phone_number":null,"timezone":"Asia\/Shanghai"},{"id":"3598883","gmt":"8","airport_id":"8477","iata_code":"WEH","city_iata_code":"WEH","icao_code":"ZSWH","country_iso2":"CN","geoname_id":"7730298","latitude":"37.18814","longitude":"122.23607","airport_name":"Weihai","country_name":"China","phone_number":null,"timezone":"Asia\/Shanghai"},{"id":"3598884","gmt":"10","airport_id":"8478","iata_code":"WEI","city_iata_code":"WEI","icao_code":"YBWP","country_iso2":"AU","geoname_id":"6301305","latitude":"-12.681317","longitude":"141.9247","airport_name":"Weipa","country_name":"Australia","phone_number":null,"timezone":"Australia\/Brisbane"},{"id":"3598885","gmt":"2","airport_id":"8479","iata_code":"WEL","city_iata_code":"WEL","icao_code":"FAWM","country_iso2":"ZA","geoname_id":"968479","latitude":"-28","longitude":"26.75","airport_name":"Welkom","country_name":"South Africa","phone_number":null,"timezone":"Africa\/Johannesburg"},{"id":"3598887","gmt":"9","airport_id":"8481","iata_code":"WET","city_iata_code":"WET","icao_code":"WABG","country_iso2":"ID","geoname_id":"7731616","latitude":"-4.166667","longitude":"135.83333","airport_name":"Wagethe","country_name":"Indonesia","phone_number":null,"timezone":"Asia\/Jayapura"},{"id":"3598888","gmt":"10","airport_id":"8482","iata_code":"WEW","city_iata_code":"WEW","icao_code":"YWWA","country_iso2":"AU","geoname_id":"6457347","latitude":"-30.233334","longitude":"149.43333","airport_name":"Wee Waa","country_name":"Australia","phone_number":null,"timezone":"Australia\/Sydney"},{"id":"3598891","gmt":"3","airport_id":"8485","iata_code":"WFI","city_iata_code":"WFI","icao_code":"FMSF","country_iso2":"MG","geoname_id":"1064891","latitude":"-21.466667","longitude":"47.083332","airport_name":"Fianarantsoa","country_name":"Madagascar","phone_number":null,"timezone":"Indian\/Antananarivo"},{"id":"3598893","gmt":"10","airport_id":"8487","iata_code":"WGA","city_iata_code":"WGA","icao_code":"YSWG","country_iso2":"AU","geoname_id":"6301352","latitude":"-35.15992","longitude":"147.46626","airport_name":"Forest Hill","country_name":"Australia","phone_number":null,"timezone":"Australia\/Sydney"},{"id":"3598895","gmt":"5.30","airport_id":"8489","iata_code":"WGC","city_iata_code":"WGC","icao_code":"VOWA","country_iso2":"IN","geoname_id":"7668638","latitude":"17.916668","longitude":"79.6","airport_name":"Warangal","country_name":"India","phone_number":null,"timezone":"Asia\/Kolkata"},{"id":"3598896","gmt":"10","airport_id":"8490","iata_code":"WGE","city_iata_code":"WGE","icao_code":"YWLG","country_iso2":"AU","geoname_id":"7668784","latitude":"-30.033333","longitude":"148.13333","airport_name":"Walgett","country_name":"Australia","phone_number":null,"timezone":"Australia\/Sydney"},{"id":"3598899","gmt":"8","airport_id":"8493","iata_code":"WGP","city_iata_code":"WGP","icao_code":"WRRW","country_iso2":"ID","geoname_id":"6301283","latitude":"-9.666667","longitude":"120.3","airport_name":"Waingapu","country_name":"Indonesia","phone_number":null,"timezone":"Asia\/Makassar"},{"id":"3598900","gmt":"10","airport_id":"8494","iata_code":"WGT","city_iata_code":"WGT","icao_code":"YWGT","country_iso2":"AU","geoname_id":"7668783","latitude":"-36.36667","longitude":"146.33333","airport_name":"Wangaratta","country_name":"Australia","phone_number":null,"timezone":"Australia\/Melbourne"},{"id":"3598902","gmt":"3","airport_id":"8496","iata_code":"WHF","city_iata_code":"WHF","icao_code":"HSSW","country_iso2":"SD","geoname_id":"8298776","latitude":"21.75","longitude":"31.5","airport_name":"Wadi Halfa","country_name":"Sudan","phone_number":null,"timezone":"Africa\/Khartoum"},{"id":"3598904","gmt":"12","airport_id":"8498","iata_code":"WHK","city_iata_code":"WHK","icao_code":"NZWK","country_iso2":"NZ","geoname_id":"6237258","latitude":"-37.924675","longitude":"176.91748","airport_name":"Whakatane","country_name":"New Zealand","phone_number":null,"timezone":"Pacific\/Auckland"},{"id":"3598906","gmt":"12","airport_id":"8500","iata_code":"WHO","city_iata_code":"WHO","icao_code":"NZFJ","country_iso2":"NZ","geoname_id":"7730728","latitude":"-43.38333","longitude":"170.18333","airport_name":"Franz Josef","country_name":"New Zealand","phone_number":null,"timezone":"Pacific\/Auckland"},{"id":"3598907","gmt":"-8","airport_id":"8501","iata_code":"WHP","city_iata_code":"LAX","icao_code":"KWHP","country_iso2":"US","geoname_id":"5408955","latitude":"34.05","longitude":"-118.25","airport_name":"Whiteman","country_name":"United States","phone_number":null,"timezone":"America\/Los_Angeles"},{"id":"3598908","gmt":null,"airport_id":"8502","iata_code":"WHS","city_iata_code":"WHS","icao_code":"EGEH","country_iso2":"GB","geoname_id":"7670769","latitude":"60.36667","longitude":"-0.983333","airport_name":"Whalsay","country_name":"United Kingdom","phone_number":null,"timezone":"Europe\/London"},{"id":"3598909","gmt":"-6","airport_id":"8503","iata_code":"WHT","city_iata_code":"WHT","icao_code":"K5R5","country_iso2":"US","geoname_id":"6297596","latitude":"29.316668","longitude":"-96.1","airport_name":"Wharton","country_name":"United States","phone_number":null,"timezone":"America\/Chicago"},{"id":"3598910","gmt":"8","airport_id":"8504","iata_code":"WHU","city_iata_code":"WHU","icao_code":"ZSWU","country_iso2":"CN","geoname_id":"7731617","latitude":"31.366667","longitude":"118.36667","airport_name":"Wuhu","country_name":"China","phone_number":null,"timezone":"Asia\/Shanghai"},{"id":"3598911","gmt":"-6","airport_id":"8505","iata_code":"WIB","city_iata_code":"WIB","icao_code":"KF05","country_iso2":"US","geoname_id":"4741798","latitude":"34.225417","longitude":"-99.283564","airport_name":"Wilbarger County","country_name":"United States","phone_number":null,"timezone":"America\/Chicago"},{"id":"3598912","gmt":null,"airport_id":"8506","iata_code":"WIC","city_iata_code":"WIC","icao_code":"EGPC","country_iso2":"GB","geoname_id":"6296623","latitude":"58.456944","longitude":"-3.086667","airport_name":"Wick","country_name":"United Kingdom","phone_number":null,"timezone":"Europe\/London"},{"id":"3598913","gmt":"1","airport_id":"8507","iata_code":"WIE","city_iata_code":"WIE","icao_code":"ETOU","country_iso2":"DE","geoname_id":"6296864","latitude":"50.083332","longitude":"8.233333","airport_name":"Air Base","country_name":"Germany","phone_number":null,"timezone":"Europe\/Berlin"},{"id":"3598914","gmt":"12","airport_id":"8508","iata_code":"WIK","city_iata_code":"WIK","icao_code":"NZKE","country_iso2":"NZ","geoname_id":"7730729","latitude":"-36.833332","longitude":"175.08333","airport_name":"Surfdale","country_name":"New Zealand","phone_number":null,"timezone":"Pacific\/Auckland"},{"id":"3598915","gmt":"3","airport_id":"8509","iata_code":"WIL","city_iata_code":"NBO","icao_code":"HKNW","country_iso2":"KE","geoname_id":"6301554","latitude":"-1.318018","longitude":"36.813248","airport_name":"Wilson","country_name":"Kenya","phone_number":null,"timezone":"Africa\/Nairobi"},{"id":"3598916","gmt":"10","airport_id":"8510","iata_code":"WIN","city_iata_code":"WIN","icao_code":"YWTN","country_iso2":"AU","geoname_id":"7730281","latitude":"-22.35","longitude":"143.06667","airport_name":"Winton","country_name":"Australia","phone_number":null,"timezone":"Australia\/Brisbane"},{"id":"3598917","gmt":"10","airport_id":"8511","iata_code":"WIO","city_iata_code":"WIO","icao_code":"YWCA","country_iso2":"AU","geoname_id":"7731618","latitude":"-31.083332","longitude":"143.55","airport_name":"Wilcannia","country_name":"Australia","phone_number":null,"timezone":"Australia\/Sydney"},{"id":"3598919","gmt":"8","airport_id":"8513","iata_code":"WIT","city_iata_code":"WIT","icao_code":"YWIT","country_iso2":"AU","geoname_id":"7731619","latitude":"-22.266666","longitude":"118.333336","airport_name":"Wittenoom","country_name":"Australia","phone_number":null,"timezone":"Australia\/Perth"},{"id":"3598923","gmt":"3","airport_id":"8517","iata_code":"WJR","city_iata_code":"WJR","icao_code":"HKWJ","country_iso2":"KE","geoname_id":"6297327","latitude":"1.766667","longitude":"40.6","airport_name":"Wajir","country_name":"Kenya","phone_number":null,"timezone":"Africa\/Nairobi"},{"id":"3598924","gmt":"9","airport_id":"8518","iata_code":"WJU","city_iata_code":"WJU","icao_code":"RKNW","country_iso2":"KR","geoname_id":"6301832","latitude":"37.434166","longitude":"127.95167","airport_name":"WonJu","country_name":"South Korea","phone_number":null,"timezone":"Asia\/Seoul"},{"id":"3598925","gmt":"12","airport_id":"8519","iata_code":"WKA","city_iata_code":"WKA","icao_code":"NZWF","country_iso2":"NZ","geoname_id":"6249755","latitude":"-44.72336","longitude":"169.24425","airport_name":"Wanaka","country_name":"New Zealand","phone_number":null,"timezone":"Pacific\/Auckland"},{"id":"3598926","gmt":"10","airport_id":"8520","iata_code":"WKB","city_iata_code":"WKB","icao_code":"YWKB","country_iso2":"AU","geoname_id":"7730279","latitude":"-36.15","longitude":"142.43333","airport_name":"Warracknabeal","country_name":"Australia","phone_number":null,"timezone":"Australia\/Melbourne"},{"id":"3598928","gmt":"2","airport_id":"8522","iata_code":"WKI","city_iata_code":"WKI","icao_code":"FVWT","country_iso2":"ZW","geoname_id":"7730531","latitude":"-18.3625","longitude":"26.518333","airport_name":"Hwange","country_name":"Zimbabwe","phone_number":null,"timezone":"Africa\/Harare"},{"id":"3598929","gmt":"9","airport_id":"8523","iata_code":"WKJ","city_iata_code":"WKJ","icao_code":"RJCW","country_iso2":"JP","geoname_id":"6300331","latitude":"45.39943","longitude":"141.7974","airport_name":"Hokkaido","country_name":"Japan","phone_number":null,"timezone":"Asia\/Tokyo"}]}