{"pagination":{"offset":6200,"limit":100,"count":100,"total":6710},"data":[{"id":"3599771","gmt":"-5","airport_id":"9365","iata_code":"YMX","city_iata_code":"YMQ","icao_code":"CYMX","country_iso2":"CA","geoname_id":"6296236","latitude":"45.666668","longitude":"-74.03","airport_name":"Mirabel","country_name":"Canada","phone_number":null,"timezone":"America\/Montreal"},{"id":"3599773","gmt":"-5","airport_id":"9367","iata_code":"YNA","city_iata_code":"YNA","icao_code":"CYNA","country_iso2":"CA","geoname_id":"6296237","latitude":"50.183334","longitude":"-61.8","airport_name":"Natashquan","country_name":"Canada","phone_number":null,"timezone":"America\/Montreal"},{"id":"3599774","gmt":"3","airport_id":"9368","iata_code":"YNB","city_iata_code":"YNB","icao_code":"OEYN","country_iso2":"SA","geoname_id":"6300033","latitude":"24.140734","longitude":"38.06302","airport_name":"Yanbu","country_name":"Saudi Arabia","phone_number":null,"timezone":"Asia\/Riyadh"},{"id":"3599775","gmt":"-5","airport_id":"9369","iata_code":"YNC","city_iata_code":"YNC","icao_code":"CYNC","country_iso2":"CA","geoname_id":"6178041","latitude":"53","longitude":"-78.816666","airport_name":"Wemindji","country_name":"Canada","phone_number":null,"timezone":"America\/Montreal"},{"id":"3599776","gmt":"-5","airport_id":"9370","iata_code":"YND","city_iata_code":"YOW","icao_code":"CYND","country_iso2":"CA","geoname_id":"6296239","latitude":"45.483334","longitude":"-75.63333","airport_name":"Executive Gatineau-Ottawa","country_name":"Canada","phone_number":null,"timezone":"America\/Toronto"},{"id":"3599779","gmt":"-5","airport_id":"9373","iata_code":"YNG","city_iata_code":"YNG","icao_code":"KYNG","country_iso2":"US","geoname_id":"5177575","latitude":"41.25611","longitude":"-80.66972","airport_name":"Youngstown","country_name":"United States","phone_number":null,"timezone":"America\/New_York"},{"id":"3599780","gmt":"-7","airport_id":"9374","iata_code":"YNH","city_iata_code":"YNH","icao_code":"CYNH","country_iso2":"CA","geoname_id":"8298905","latitude":"56","longitude":"-121.9","airport_name":"Hudson Hope","country_name":"Canada","phone_number":null,"timezone":"America\/Edmonton"},{"id":"3599782","gmt":"8","airport_id":"9376","iata_code":"YNJ","city_iata_code":"YNJ","icao_code":"ZYYJ","country_iso2":"CN","geoname_id":"7668815","latitude":"42.885662","longitude":"129.43936","airport_name":"Yanji","country_name":"China","phone_number":null,"timezone":"Asia\/Shanghai"},{"id":"3599784","gmt":"-6","airport_id":"9378","iata_code":"YNL","city_iata_code":"YNL","icao_code":"CYNL","country_iso2":"CA","geoname_id":"7668133","latitude":"58.275","longitude":"-104.08111","airport_name":"Points North Landing","country_name":"Canada","phone_number":null,"timezone":"America\/Regina"},{"id":"3599785","gmt":"-5","airport_id":"9379","iata_code":"YNM","city_iata_code":"YNM","icao_code":"CYNM","country_iso2":"CA","geoname_id":"6296241","latitude":"49.75","longitude":"-77.8","airport_name":"Matagami","country_name":"Canada","phone_number":null,"timezone":"America\/Montreal"},{"id":"3599787","gmt":"-6","airport_id":"9381","iata_code":"YNO","city_iata_code":"YNO","icao_code":"CKQ3","country_iso2":"CA","geoname_id":"7730448","latitude":"52.5","longitude":"-92.416664","airport_name":"North Spirit Lake","country_name":"Canada","phone_number":null,"timezone":"America\/Winnipeg"},{"id":"3599790","gmt":"-5","airport_id":"9384","iata_code":"YNS","city_iata_code":"YNS","icao_code":"CYHH","country_iso2":"CA","geoname_id":"6087000","latitude":"49.74167","longitude":"-76.74167","airport_name":"Nemiscau","country_name":"Canada","phone_number":null,"timezone":"America\/Montreal"},{"id":"3599791","gmt":"8","airport_id":"9385","iata_code":"YNT","city_iata_code":"YNT","icao_code":"ZSYT","country_iso2":"CN","geoname_id":"6453415","latitude":"37.407326","longitude":"121.3711","airport_name":"Yantai","country_name":"China","phone_number":null,"timezone":"Asia\/Shanghai"},{"id":"3599793","gmt":"9","airport_id":"9387","iata_code":"YNY","city_iata_code":"YNY","icao_code":"RKNY","country_iso2":"KR","geoname_id":"7668419","latitude":"38.066666","longitude":"128.6","airport_name":"Yangyang","country_name":"South Korea","phone_number":null,"timezone":"Asia\/Seoul"},{"id":"3599794","gmt":"8","airport_id":"9388","iata_code":"YNZ","city_iata_code":"YNZ","icao_code":"ZSYN","country_iso2":"CN","geoname_id":"7731646","latitude":"33.43468","longitude":"120.20418","airport_name":"Yancheng","country_name":"China","phone_number":null,"timezone":"Asia\/Shanghai"},{"id":"3599796","gmt":"-8","airport_id":"9390","iata_code":"YOC","city_iata_code":"YOC","icao_code":"CYOC","country_iso2":"CA","geoname_id":"6296243","latitude":"67.583336","longitude":"-139.83333","airport_name":"Old Crow","country_name":"Canada","phone_number":null,"timezone":"America\/Whitehorse"},{"id":"3599797","gmt":"-7","airport_id":"9391","iata_code":"YOD","city_iata_code":"YOD","icao_code":"CEN5","country_iso2":"CA","geoname_id":"6296244","latitude":"54.466667","longitude":"-110.25","airport_name":"Cold Lake","country_name":"Canada","phone_number":null,"timezone":"America\/Edmonton"},{"id":"3599799","gmt":"-5","airport_id":"9393","iata_code":"YOG","city_iata_code":"YOG","icao_code":"CNT3","country_iso2":"CA","geoname_id":"7730451","latitude":"51.666668","longitude":"-85.916664","airport_name":"Ogoki","country_name":"Canada","phone_number":null,"timezone":"America\/Toronto"},{"id":"3599800","gmt":"-6","airport_id":"9394","iata_code":"YOH","city_iata_code":"YOH","icao_code":"CYOH","country_iso2":"CA","geoname_id":"7668134","latitude":"54.95","longitude":"-95.28333","airport_name":"Oxford House","country_name":"Canada","phone_number":null,"timezone":"America\/Winnipeg"},{"id":"3599802","gmt":"-7","airport_id":"9396","iata_code":"YOJ","city_iata_code":"YOJ","icao_code":"CYOJ","country_iso2":"CA","geoname_id":"6296245","latitude":"58.618332","longitude":"-117.168335","airport_name":"Footner Lake","country_name":"Canada","phone_number":null,"timezone":"America\/Edmonton"},{"id":"3599804","gmt":"1","airport_id":"9398","iata_code":"YOL","city_iata_code":"YOL","icao_code":"DNYO","country_iso2":"NG","geoname_id":"6296449","latitude":"9.266111","longitude":"12.432222","airport_name":"Yola","country_name":"Nigeria","phone_number":null,"timezone":"Africa\/Lagos"},{"id":"3599805","gmt":"-5","airport_id":"9399","iata_code":"YOO","city_iata_code":"QWA","icao_code":"CYOO","country_iso2":"CA","geoname_id":"7668135","latitude":"43.916668","longitude":"-78.9","airport_name":"Oshawa","country_name":"Canada","phone_number":null,"timezone":"America\/Toronto"},{"id":"3599806","gmt":"-7","airport_id":"9400","iata_code":"YOP","city_iata_code":"YOP","icao_code":"CYOP","country_iso2":"CA","geoname_id":"7668136","latitude":"58.5","longitude":"-119.4","airport_name":"Rainbow Lake","country_name":"Canada","phone_number":null,"timezone":"America\/Edmonton"},{"id":"3599807","gmt":"-5","airport_id":"9401","iata_code":"YOS","city_iata_code":"YOS","icao_code":"CYOS","country_iso2":"CA","geoname_id":"7730037","latitude":"44.59028","longitude":"-80.8375","airport_name":"Billy Bishop Regional","country_name":"Canada","phone_number":null,"timezone":"America\/Toronto"},{"id":"3599808","gmt":"2","airport_id":"9402","iata_code":"YOT","city_iata_code":"YOT","icao_code":"LLYT","country_iso2":"IL","geoname_id":"7668324","latitude":"29.9","longitude":"35.066666","airport_name":"Yotvata","country_name":"Israel","phone_number":null,"timezone":"Asia\/Jerusalem"},{"id":"3599809","gmt":"-5","airport_id":"9403","iata_code":"YOW","city_iata_code":"YOW","icao_code":"CYOW","country_iso2":"CA","geoname_id":"6296246","latitude":"45.32083","longitude":"-75.672775","airport_name":"Ottawa Macdonald-Cartier International","country_name":"Canada","phone_number":"613-248-2125","timezone":"America\/Toronto"},{"id":"3599811","gmt":"-6","airport_id":"9405","iata_code":"YPA","city_iata_code":"YPA","icao_code":"CYPA","country_iso2":"CA","geoname_id":"6296247","latitude":"53.216667","longitude":"-105.683334","airport_name":"Glass Field","country_name":"Canada","phone_number":null,"timezone":"America\/Regina"},{"id":"3599812","gmt":"-8","airport_id":"9406","iata_code":"YPB","city_iata_code":"YPB","icao_code":"EHYP","country_iso2":"CA","geoname_id":"6111632","latitude":"49.233334","longitude":"-124.8","airport_name":"Port Alberni","country_name":"Canada","phone_number":null,"timezone":"America\/Vancouver"},{"id":"3599813","gmt":"-7","airport_id":"9407","iata_code":"YPC","city_iata_code":"YPC","icao_code":"CYPC","country_iso2":"CA","geoname_id":"6296248","latitude":"69.35514","longitude":"-124.07468","airport_name":"Paulatuk","country_name":"Canada","phone_number":null,"timezone":"America\/Yellowknife"},{"id":"3599815","gmt":"-7","airport_id":"9409","iata_code":"YPE","city_iata_code":"YPE","icao_code":"CYPE","country_iso2":"CA","geoname_id":"6296250","latitude":"56.22778","longitude":"-117.44028","airport_name":"Peace River","country_name":"Canada","phone_number":null,"timezone":"America\/Edmonton"},{"id":"3599817","gmt":"-6","airport_id":"9411","iata_code":"YPG","city_iata_code":"YPG","icao_code":"CYPG","country_iso2":"CA","geoname_id":"6296251","latitude":"49.966667","longitude":"-98.3","airport_name":"Portage La Prairie","country_name":"Canada","phone_number":null,"timezone":"America\/Winnipeg"},{"id":"3599818","gmt":"-5","airport_id":"9412","iata_code":"YPH","city_iata_code":"YPH","icao_code":"CYPH","country_iso2":"CA","geoname_id":"5983577","latitude":"58.433334","longitude":"-78.166664","airport_name":"Inukjuak","country_name":"Canada","phone_number":null,"timezone":"America\/Montreal"},{"id":"3599819","gmt":"-5","airport_id":"9413","iata_code":"YPJ","city_iata_code":"YPJ","icao_code":"CYLA","country_iso2":"CA","geoname_id":"6296222","latitude":"59.3","longitude":"-69.666664","airport_name":"Aupaluk","country_name":"Canada","phone_number":null,"timezone":"America\/Montreal"},{"id":"3599820","gmt":"-5","airport_id":"9414","iata_code":"YPL","city_iata_code":"YPL","icao_code":"CYPL","country_iso2":"CA","geoname_id":"6301468","latitude":"51.208332","longitude":"-90.208336","airport_name":"Pickle Lake","country_name":"Canada","phone_number":null,"timezone":"America\/Atikokan"},{"id":"3599821","gmt":"-6","airport_id":"9415","iata_code":"YPM","city_iata_code":"YPM","icao_code":"CYPM","country_iso2":"CA","geoname_id":"7668137","latitude":"51.817375","longitude":"-93.97287","airport_name":"Pikangikum","country_name":"Canada","phone_number":null,"timezone":"America\/Winnipeg"},{"id":"3599822","gmt":"-5","airport_id":"9416","iata_code":"YPN","city_iata_code":"YPN","icao_code":"CYPN","country_iso2":"CA","geoname_id":"6301469","latitude":"49.833332","longitude":"-64.28333","airport_name":"Port Menier","country_name":"Canada","phone_number":null,"timezone":"America\/Montreal"},{"id":"3599823","gmt":"-5","airport_id":"9417","iata_code":"YPO","city_iata_code":"YPO","icao_code":"CYPO","country_iso2":"CA","geoname_id":"7668138","latitude":"54.983334","longitude":"-85.433334","airport_name":"Peawanuck","country_name":"Canada","phone_number":null,"timezone":"America\/Toronto"},{"id":"3599825","gmt":"-5","airport_id":"9419","iata_code":"YPQ","city_iata_code":"YPQ","icao_code":"CYPQ","country_iso2":"CA","geoname_id":"6296252","latitude":"44.3","longitude":"-78.316666","airport_name":"Peterborough","country_name":"Canada","phone_number":null,"timezone":"America\/Toronto"},{"id":"3599826","gmt":"-8","airport_id":"9420","iata_code":"YPR","city_iata_code":"YPR","icao_code":"CYPR","country_iso2":"CA","geoname_id":"6296253","latitude":"54.287224","longitude":"-130.44083","airport_name":"Digby Island","country_name":"Canada","phone_number":null,"timezone":"America\/Vancouver"},{"id":"3599827","gmt":"-4","airport_id":"9421","iata_code":"YPS","city_iata_code":"YPS","icao_code":"CYPD","country_iso2":"CA","geoname_id":"6296249","latitude":"45.61667","longitude":"-61.35","airport_name":"Port Hawkesbury","country_name":"Canada","phone_number":null,"timezone":"America\/Halifax"},{"id":"3599829","gmt":"-8","airport_id":"9423","iata_code":"YPW","city_iata_code":"YPW","icao_code":"CYPW","country_iso2":"CA","geoname_id":"6296254","latitude":"49.816666","longitude":"-124.5","airport_name":"Powell River","country_name":"Canada","phone_number":null,"timezone":"America\/Vancouver"},{"id":"3599830","gmt":"-5","airport_id":"9424","iata_code":"YPX","city_iata_code":"YPX","icao_code":"CYPX","country_iso2":"CA","geoname_id":"6296255","latitude":"60.033333","longitude":"-77.166664","airport_name":"Puvirnituq","country_name":"Canada","phone_number":null,"timezone":"America\/Montreal"},{"id":"3599832","gmt":"-8","airport_id":"9426","iata_code":"YPZ","city_iata_code":"YPZ","icao_code":"CYPZ","country_iso2":"CA","geoname_id":"6301471","latitude":"54.233334","longitude":"-125.76667","airport_name":"Burns Lake","country_name":"Canada","phone_number":null,"timezone":"America\/Vancouver"},{"id":"3599833","gmt":"-5","airport_id":"9427","iata_code":"YQA","city_iata_code":"YQA","icao_code":"CYQA","country_iso2":"CA","geoname_id":"6296256","latitude":"44.966667","longitude":"-79.3","airport_name":"Muskoka","country_name":"Canada","phone_number":null,"timezone":"America\/Toronto"},{"id":"3599834","gmt":"-5","airport_id":"9428","iata_code":"YQB","city_iata_code":"YQB","icao_code":"CYQB","country_iso2":"CA","geoname_id":"6301472","latitude":"46.792038","longitude":"-71.383385","airport_name":"Qu\u00e9bec","country_name":"Canada","phone_number":null,"timezone":"America\/Montreal"},{"id":"3599835","gmt":"-5","airport_id":"9429","iata_code":"YQC","city_iata_code":"YQC","icao_code":"CUHA","country_iso2":"CA","geoname_id":"6296198","latitude":"61.333332","longitude":"-69.63333","airport_name":"Quaqtaq","country_name":"Canada","phone_number":null,"timezone":"America\/Montreal"},{"id":"3599836","gmt":"-6","airport_id":"9430","iata_code":"YQD","city_iata_code":"YQD","icao_code":"CYQD","country_iso2":"CA","geoname_id":"6296257","latitude":"53.966667","longitude":"-101.1","airport_name":"Clearwater","country_name":"Canada","phone_number":null,"timezone":"America\/Winnipeg"},{"id":"3599838","gmt":"-7","airport_id":"9432","iata_code":"YQF","city_iata_code":"YQF","icao_code":"CYQF","country_iso2":"CA","geoname_id":"6296258","latitude":"52.176945","longitude":"-113.89333","airport_name":"Red Deer","country_name":"Canada","phone_number":null,"timezone":"America\/Edmonton"},{"id":"3599839","gmt":"-5","airport_id":"9433","iata_code":"YQG","city_iata_code":"YQG","icao_code":"CYQG","country_iso2":"CA","geoname_id":"6296259","latitude":"42.274166","longitude":"-82.96389","airport_name":"Windsor","country_name":"Canada","phone_number":null,"timezone":"America\/Toronto"},{"id":"3599840","gmt":"-8","airport_id":"9434","iata_code":"YQH","city_iata_code":"YQH","icao_code":"CYQH","country_iso2":"CA","geoname_id":"6296260","latitude":"60.12361","longitude":"-128.825","airport_name":"Watson Lake","country_name":"Canada","phone_number":null,"timezone":"America\/Whitehorse"},{"id":"3599841","gmt":"-4","airport_id":"9435","iata_code":"YQI","city_iata_code":"YQI","icao_code":"CYQI","country_iso2":"CA","geoname_id":"6296261","latitude":"43.833332","longitude":"-66.083336","airport_name":"Yarmouth","country_name":"Canada","phone_number":null,"timezone":"America\/Halifax"},{"id":"3599843","gmt":"-6","airport_id":"9437","iata_code":"YQK","city_iata_code":"YQK","icao_code":"CYQK","country_iso2":"CA","geoname_id":"6296262","latitude":"49.7875","longitude":"-94.35833","airport_name":"Kenora","country_name":"Canada","phone_number":null,"timezone":"America\/Winnipeg"},{"id":"3599844","gmt":"-7","airport_id":"9438","iata_code":"YQL","city_iata_code":"YQL","icao_code":"CYQL","country_iso2":"CA","geoname_id":"6301473","latitude":"49.631943","longitude":"-112.791664","airport_name":"Lethbridge","country_name":"Canada","phone_number":null,"timezone":"America\/Edmonton"},{"id":"3599845","gmt":"-4","airport_id":"9439","iata_code":"YQM","city_iata_code":"YQM","icao_code":"CYQM","country_iso2":"CA","geoname_id":"6296263","latitude":"46.104774","longitude":"-64.68123","airport_name":"Greater Moncton International Airport","country_name":"Canada","phone_number":null,"timezone":"America\/Moncton"},{"id":"3599846","gmt":"-5","airport_id":"9440","iata_code":"YQN","city_iata_code":"YQN","icao_code":"CYQN","country_iso2":"CA","geoname_id":"7668139","latitude":"50.166668","longitude":"-86.7","airport_name":"Nakina","country_name":"Canada","phone_number":null,"timezone":"America\/Toronto"},{"id":"3599847","gmt":"-8","airport_id":"9441","iata_code":"YQQ","city_iata_code":"YQQ","icao_code":"CYQQ","country_iso2":"CA","geoname_id":"6296264","latitude":"49.705864","longitude":"-124.907814","airport_name":"Comox","country_name":"Canada","phone_number":null,"timezone":"America\/Vancouver"},{"id":"3599848","gmt":"-6","airport_id":"9442","iata_code":"YQR","city_iata_code":"YQR","icao_code":"CYQR","country_iso2":"CA","geoname_id":"6301474","latitude":"50.433327","longitude":"-104.65519","airport_name":"Regina","country_name":"Canada","phone_number":null,"timezone":"America\/Regina"},{"id":"3599849","gmt":"-5","airport_id":"9443","iata_code":"YQS","city_iata_code":"YQS","icao_code":"CYQS","country_iso2":"CA","geoname_id":"7730038","latitude":"42.783333","longitude":"-81.2","airport_name":"Pembroke Area Municipalcipal","country_name":"Canada","phone_number":null,"timezone":"America\/Toronto"},{"id":"3599850","gmt":"-5","airport_id":"9444","iata_code":"YQT","city_iata_code":"YQT","icao_code":"CYQT","country_iso2":"CA","geoname_id":"6296265","latitude":"48.37184","longitude":"-89.31167","airport_name":"Thunder Bay","country_name":"Canada","phone_number":null,"timezone":"America\/Thunder_Bay"},{"id":"3599851","gmt":"-7","airport_id":"9445","iata_code":"YQU","city_iata_code":"YQU","icao_code":"CYQU","country_iso2":"CA","geoname_id":"6296266","latitude":"55.177074","longitude":"-118.873604","airport_name":"Grande Prairie","country_name":"Canada","phone_number":null,"timezone":"America\/Edmonton"},{"id":"3599852","gmt":"-6","airport_id":"9446","iata_code":"YQV","city_iata_code":"YQV","icao_code":"CYQV","country_iso2":"CA","geoname_id":"6296267","latitude":"51.216667","longitude":"-102.46667","airport_name":"Yorkton","country_name":"Canada","phone_number":null,"timezone":"America\/Regina"},{"id":"3599853","gmt":"-6","airport_id":"9447","iata_code":"YQW","city_iata_code":"YQW","icao_code":"CYQW","country_iso2":"CA","geoname_id":"6296268","latitude":"52.766666","longitude":"-108.25","airport_name":"North Battleford","country_name":"Canada","phone_number":null,"timezone":"America\/Regina"},{"id":"3599854","gmt":"-2:30","airport_id":"9448","iata_code":"YQX","city_iata_code":"YQX","icao_code":"CYQX","country_iso2":"CA","geoname_id":"6296269","latitude":"48.946667","longitude":"-54.56333","airport_name":"Gander International","country_name":"Canada","phone_number":null,"timezone":"America\/St_Johns"},{"id":"3599855","gmt":"-4","airport_id":"9449","iata_code":"YQY","city_iata_code":"YQY","icao_code":"CYQY","country_iso2":"CA","geoname_id":"6354908","latitude":"46.166668","longitude":"-60.05","airport_name":"Sydney","country_name":"Canada","phone_number":null,"timezone":"America\/Glace_Bay"},{"id":"3599856","gmt":"-8","airport_id":"9450","iata_code":"YQZ","city_iata_code":"YQZ","icao_code":"CYQZ","country_iso2":"CA","geoname_id":"6301475","latitude":"53.02667","longitude":"-122.50972","airport_name":"Quesnel","country_name":"Canada","phone_number":null,"timezone":"America\/Vancouver"},{"id":"3599857","gmt":"-7","airport_id":"9451","iata_code":"YRA","city_iata_code":"YRA","icao_code":"CEV4","country_iso2":"CA","geoname_id":"7910283","latitude":"64.11667","longitude":"-117.35","airport_name":"Rae Lakes","country_name":"Canada","phone_number":null,"timezone":"America\/Yellowknife"},{"id":"3599858","gmt":"-6","airport_id":"9452","iata_code":"YRB","city_iata_code":"YRB","icao_code":"CYRB","country_iso2":"CA","geoname_id":"6296271","latitude":"74.71667","longitude":"-94.96667","airport_name":"Resolute","country_name":"Canada","phone_number":null,"timezone":"America\/Resolute"},{"id":"3599859","gmt":"-8","airport_id":"9453","iata_code":"YRC","city_iata_code":"YRC","icao_code":"CYRC","country_iso2":"CA","geoname_id":"6118978","latitude":"48.526764","longitude":"-71.05734","airport_name":"Refuge Cove SPB","country_name":"Canada","phone_number":null,"timezone":"America\/Vancouver"},{"id":"3599862","gmt":"-4","airport_id":"9456","iata_code":"YRF","city_iata_code":"YRF","icao_code":"CYCA","country_iso2":"CA","geoname_id":"6301445","latitude":"53.682606","longitude":"-57.03828","airport_name":"Cartwright","country_name":"Canada","phone_number":null,"timezone":"America\/Goose_Bay"},{"id":"3599863","gmt":"-4","airport_id":"9457","iata_code":"YRG","city_iata_code":"YRG","icao_code":"CCZ2","country_iso2":"CA","geoname_id":"7730444","latitude":"54.333332","longitude":"-58.416668","airport_name":"Rigolet","country_name":"Canada","phone_number":null,"timezone":"America\/Goose_Bay"},{"id":"3599864","gmt":"-5","airport_id":"9458","iata_code":"YRI","city_iata_code":"YRI","icao_code":"CYRI","country_iso2":"CA","geoname_id":"7668140","latitude":"47.833332","longitude":"-69.53333","airport_name":"Riviere Du Loup","country_name":"Canada","phone_number":null,"timezone":"America\/Montreal"},{"id":"3599865","gmt":"-5","airport_id":"9459","iata_code":"YRJ","city_iata_code":"YRJ","icao_code":"CYRJ","country_iso2":"CA","geoname_id":"6296272","latitude":"48.516666","longitude":"-72.21667","airport_name":"Roberval","country_name":"Canada","phone_number":null,"timezone":"America\/Montreal"},{"id":"3599866","gmt":"-6","airport_id":"9460","iata_code":"YRL","city_iata_code":"YRL","icao_code":"CYRL","country_iso2":"CA","geoname_id":"6296273","latitude":"51.068764","longitude":"-93.80006","airport_name":"Red Lake","country_name":"Canada","phone_number":null,"timezone":"America\/Winnipeg"},{"id":"3599867","gmt":"-7","airport_id":"9461","iata_code":"YRM","city_iata_code":"YRM","icao_code":"CYRM","country_iso2":"CA","geoname_id":"6301476","latitude":"52.36667","longitude":"-114.916664","airport_name":"Rocky Mountain House","country_name":"Canada","phone_number":null,"timezone":"America\/Edmonton"},{"id":"3599869","gmt":"-5","airport_id":"9463","iata_code":"YRO","city_iata_code":"YOW","icao_code":"CYRO","country_iso2":"CA","geoname_id":"7730039","latitude":"45.45","longitude":"-75.7","airport_name":"Rockcliffe St","country_name":"Canada","phone_number":null,"timezone":"America\/Toronto"},{"id":"3599870","gmt":"-5","airport_id":"9464","iata_code":"YRQ","city_iata_code":"YRQ","icao_code":"CYRQ","country_iso2":"CA","geoname_id":"7668141","latitude":"46.35","longitude":"-72.683334","airport_name":"Trois-Rivieres","country_name":"Canada","phone_number":null,"timezone":"America\/Montreal"},{"id":"3599872","gmt":"-6","airport_id":"9466","iata_code":"YRS","city_iata_code":"YRS","icao_code":"CYRS","country_iso2":"CA","geoname_id":"7668142","latitude":"54.166668","longitude":"-93.583336","airport_name":"Red Sucker Lake","country_name":"Canada","phone_number":null,"timezone":"America\/Winnipeg"},{"id":"3599873","gmt":"-6","airport_id":"9467","iata_code":"YRT","city_iata_code":"YRT","icao_code":"CYRT","country_iso2":"CA","geoname_id":"6296274","latitude":"62.80998","longitude":"-92.10019","airport_name":"Nuuk","country_name":"Canada","phone_number":null,"timezone":"America\/Rankin_Inlet"},{"id":"3599876","gmt":"-5","airport_id":"9470","iata_code":"YSB","city_iata_code":"YSB","icao_code":"CYSB","country_iso2":"CA","geoname_id":"6296276","latitude":"46.62296","longitude":"-80.79592","airport_name":"Sudbury","country_name":"Canada","phone_number":null,"timezone":"America\/Toronto"},{"id":"3599877","gmt":"-5","airport_id":"9471","iata_code":"YSC","city_iata_code":"YSC","icao_code":"CYSC","country_iso2":"CA","geoname_id":"6301478","latitude":"45.416668","longitude":"-71.9","airport_name":"Sherbrooke","country_name":"Canada","phone_number":null,"timezone":"America\/Montreal"},{"id":"3599879","gmt":"-8","airport_id":"9473","iata_code":"YSE","city_iata_code":"YSE","icao_code":"CWSK","country_iso2":"CA","geoname_id":"6296029","latitude":"52.11667","longitude":"-101.23333","airport_name":"Squamish","country_name":"Canada","phone_number":null,"timezone":"America\/Vancouver"},{"id":"3599880","gmt":"-6","airport_id":"9474","iata_code":"YSF","city_iata_code":"YSF","icao_code":"CYSF","country_iso2":"CA","geoname_id":"6296278","latitude":"59.25","longitude":"-105.833336","airport_name":"Stony Rapids","country_name":"Canada","phone_number":null,"timezone":"America\/Regina"},{"id":"3599882","gmt":"-5","airport_id":"9476","iata_code":"YSH","city_iata_code":"YSH","icao_code":"CYSH","country_iso2":"CA","geoname_id":"7668143","latitude":"44.94829","longitude":"-75.93959","airport_name":"Smith Falls","country_name":"Canada","phone_number":null,"timezone":"America\/Toronto"},{"id":"3599884","gmt":"-4","airport_id":"9478","iata_code":"YSJ","city_iata_code":"YSJ","icao_code":"CYSJ","country_iso2":"CA","geoname_id":"6296279","latitude":"45.32948","longitude":"-65.8902","airport_name":"Saint John","country_name":"Canada","phone_number":null,"timezone":"America\/Moncton"},{"id":"3599885","gmt":"-5","airport_id":"9479","iata_code":"YSK","city_iata_code":"YSK","icao_code":"CYSK","country_iso2":"CA","geoname_id":"6296280","latitude":"56.55","longitude":"-79.21667","airport_name":"Sanikiluaq","country_name":"Canada","phone_number":null,"timezone":"America\/Iqaluit"},{"id":"3599886","gmt":"-4","airport_id":"9480","iata_code":"YSL","city_iata_code":"YSL","icao_code":"CYSL","country_iso2":"CA","geoname_id":"6301479","latitude":"47.183334","longitude":"-67.9","airport_name":"St Leonard","country_name":"Canada","phone_number":null,"timezone":"America\/Moncton"},{"id":"3599887","gmt":"-7","airport_id":"9481","iata_code":"YSM","city_iata_code":"YSM","icao_code":"CYSM","country_iso2":"CA","geoname_id":"6296281","latitude":"60.016666","longitude":"-111.96667","airport_name":"Fort Smith","country_name":"Canada","phone_number":null,"timezone":"America\/Yellowknife"},{"id":"3599888","gmt":"-8","airport_id":"9482","iata_code":"YSN","city_iata_code":"YSN","icao_code":"CZAM","country_iso2":"CA","geoname_id":"7668152","latitude":"50.683334","longitude":"-119.23333","airport_name":"Salmon Arm","country_name":"Canada","phone_number":null,"timezone":"America\/Vancouver"},{"id":"3599889","gmt":"-4","airport_id":"9483","iata_code":"YSO","city_iata_code":"YSO","icao_code":"CCD4","country_iso2":"CA","geoname_id":"7910199","latitude":"54.916668","longitude":"-59.966667","airport_name":"Postville","country_name":"Canada","phone_number":null,"timezone":"America\/Goose_Bay"},{"id":"3599890","gmt":"-5","airport_id":"9484","iata_code":"YSP","city_iata_code":"YSP","icao_code":"CYSP","country_iso2":"CA","geoname_id":"7730040","latitude":"48.75","longitude":"-86.35","airport_name":"Marathon","country_name":"Canada","phone_number":null,"timezone":"America\/Toronto"},{"id":"3599893","gmt":"-6","airport_id":"9487","iata_code":"YST","city_iata_code":"YST","icao_code":"CYST","country_iso2":"CA","geoname_id":"7668144","latitude":"53.85","longitude":"-94.65","airport_name":"Ste Therese Point","country_name":"Canada","phone_number":null,"timezone":"America\/Winnipeg"},{"id":"3599894","gmt":"-4","airport_id":"9488","iata_code":"YSU","city_iata_code":"YSU","icao_code":"CYSU","country_iso2":"CA","geoname_id":"6301481","latitude":"49","longitude":"-57.983334","airport_name":"Summerside","country_name":"Canada","phone_number":null,"timezone":"America\/Halifax"},{"id":"3599896","gmt":"-7","airport_id":"9490","iata_code":"YSY","city_iata_code":"YSY","icao_code":"CYSY","country_iso2":"CA","geoname_id":"6301482","latitude":"71.99145","longitude":"-125.24104","airport_name":"Sachs Harbour","country_name":"Canada","phone_number":null,"timezone":"America\/Yellowknife"},{"id":"3599898","gmt":"-5","airport_id":"9492","iata_code":"YTA","city_iata_code":"YTA","icao_code":"CYTA","country_iso2":"CA","geoname_id":"7668145","latitude":"45.861668","longitude":"-77.24944","airport_name":"Pembroke And Area Airport","country_name":"Canada","phone_number":null,"timezone":"America\/Toronto"},{"id":"3599901","gmt":"-6","airport_id":"9495","iata_code":"YTD","city_iata_code":"YTD","icao_code":"CZLQ","country_iso2":"CA","geoname_id":"7668161","latitude":"55.316666","longitude":"-97.7","airport_name":"Thicket Portage","country_name":"Canada","phone_number":null,"timezone":"America\/Winnipeg"},{"id":"3599902","gmt":"-5","airport_id":"9496","iata_code":"YTE","city_iata_code":"YTE","icao_code":"CYTE","country_iso2":"CA","geoname_id":"6296283","latitude":"64.23333","longitude":"-76.53333","airport_name":"Cape Dorset","country_name":"Canada","phone_number":null,"timezone":"America\/Iqaluit"},{"id":"3599903","gmt":"-5","airport_id":"9497","iata_code":"YTF","city_iata_code":"YTF","icao_code":"CYTF","country_iso2":"CA","geoname_id":"7668146","latitude":"48.533333","longitude":"-71.666664","airport_name":"Alma","country_name":"Canada","phone_number":null,"timezone":"America\/Montreal"},{"id":"3599905","gmt":"-6","airport_id":"9499","iata_code":"YTH","city_iata_code":"YTH","icao_code":"CYTH","country_iso2":"CA","geoname_id":"6296284","latitude":"55.79753","longitude":"-97.8605","airport_name":"Thompson","country_name":"Canada","phone_number":null,"timezone":"America\/Winnipeg"},{"id":"3599908","gmt":"-6","airport_id":"9502","iata_code":"YTL","city_iata_code":"YTL","icao_code":"CYTL","country_iso2":"CA","geoname_id":"7910161","latitude":"53.81594","longitude":"-89.88952","airport_name":"Big Trout","country_name":"Canada","phone_number":null,"timezone":"America\/Winnipeg"},{"id":"3599909","gmt":"-5","airport_id":"9503","iata_code":"YTM","city_iata_code":"YTM","icao_code":"CYFJ","country_iso2":"CA","geoname_id":"7730033","latitude":"46.515556","longitude":"-74.75528","airport_name":"La Macaza","country_name":"Canada","phone_number":null,"timezone":"America\/Montreal"}]}